SrNo,Health Facility Name,Address,street,landmark,locality,pincode,landline_number,latitude,longitude,altitude,Facility Type,State_Name,District_Name,Taluka_Name,Block_Name
1672,Area-2,,,,,,,0,0,0,SubCentre,Delhi,North West,Saraswati Vihar,\N
2805,Area-2 (070607804),,,,,,,0,0,0,SubCentre,Delhi,Central,Civil Lines,\N
2832,Area-C,,,,,,,0,0,0,SubCentre,Delhi,West,Patel Nagar,\N
3991,ESI NAND NAGRI,Main Road,"Near Dtc Depot , Village Mandoli",,NAND NAGARI,110093,2259 1935,28.698661,77.304322,0,Dispensaries,Delhi,Shahdara,Seema Puri,\N
3992,CGHS Man Sarover Park,CGHS Wellness Centre,"Near DDA Flats, Mansarover park",,shahdara,110032,22583766,28.6754,77.301,0,Dispensaries,Delhi,Shahdara,Shahdara,\N
3995,CGHS DILSHAD GARDEN,"No. 87, Pkt B",Near Sarvodaya Vidyalaya,,Dilshad Garden,110095,22596489,28.68089993,77.31381322,0,Dispensaries,Delhi,Shahdara,Seema Puri,\N
3998,CGHS Dispensary Vivek Vihar,D-12 A,Chander Nagar,GZB,Vivek Vihar,110095,22143551,28.663626,77.318205,0,Dispensaries,Delhi,Shahdara,Vivek Vihar,\N
4003,Ashok Nursing Home,F3/15-16,Block F,,Krishna Nagar,110051,2202 3420,28.39343,77.17004,0,100-500 Bedded Hospital,Delhi,Shahdara,Vivek Vihar,\N
4004,Deepak Memorial Hospital,"5 & 6, Vikas Marg Extension",Institutional Area,,karkardooma,110092,22155555,28.39426,77.18045,0,100-500 Bedded Hospital,Delhi,Shahdara,\N,\N
4005,Deepak Memorial Hospital,"5 & 6, Vikas Marg Extension",Institutional Area,,karkardooma,110092,22155555,28.39426,77.18045,0,100-500 Bedded Hospital,Delhi,Shahdara,\N,\N
4027,Shri Ram Singh Hospital,"B-25-26, 26-A","Swaran Cinema Road, east Krishna nagar",,Vivek Vihar,110051,22003244,28.662347,77.286369,0,100-500 Bedded Hospital,Delhi,Shahdara,\N,\N
4029,Gupta Nursing Home,"25, raj block",naveen shahdara,west rhotas nagar,shahdara,110032,22322218,28.676087,77.287455,0,<100 Bedded Hospital,Delhi,Shahdara,Shahdara,\N
4030,Mahalaxmi Hospital,P-8/1449,main 100 feet Rd,durgapuri,shahdara,110093,22299416,28.689191,77.297272,0,<100 Bedded Hospital,Delhi,Shahdara,Shahdara,\N
4036,Delhi State Cancer Institute,"8, GTB Hospital Complex","East Nathu Colony, GTB Enclave",,Dilshad Garden,110095,22110303,28.686242,77.309087,0,100-500 Bedded Hospital,Delhi,Shahdara,Seema Puri,\N
4038,Institute of Human Behaviour & Allied Science,GTB Enclave,"Dilshad Garden, North East Delhi",,Dilshad Garden,110095,22114032,28.680133,77.306377,0,100-500 Bedded Hospital,Delhi,Shahdara,Seema Puri,\N
4039,Rajiv Gandhi Super Speciality Hospital,Tahirpur,Taharpur Village,,Dilshad Garden,110093,22312244,28.689129,77.316552,0,>500 Bedded Hospital,Delhi,Shahdara,Seema Puri,\N
4050,Parivar Seva Clinic,"X-41, Karkardooma Institutional Area","Near/Opposite to Central School, Mangalam Marg, A G C R Enclave,","Anand Vihar, New Delhi,",karkardooma,110092,22375975,28.653401,77.293802,0,<100 Bedded Hospital,Delhi,Shahdara,Vivek Vihar,\N
4074,jp memorial,"F189, NS Road, Block F",Dilshad Colony,,Dilshad Garden,110095,22354050,28.68471,77.329936,0,<100 Bedded Hospital,Delhi,Shahdara,Seema Puri,\N
4075,Jyoti Clinic And Maternity Home,"Shop No. 1480, East Jyoti Nagar","Main 100 Feet Rd, Durgapuri Extension, Durga Puri,",,shahdara,110093,22810860,28.691698,77.292308,0,<100 Bedded Hospital,Delhi,Shahdara,Shahdara,\N
4076,Kalyan Nursing Home,G-22,dilshad colony,,Dilshad Garden,110095,22351292,28.681355,77.328471,0,<100 Bedded Hospital,Delhi,Shahdara,Seema Puri,\N
4077,Kamaal Nursing Home,"790, Indira Chowk","Jafrabad, Shahdara",,shahdara,110053,2219 8308,28.67967,77.271682,0,<100 Bedded Hospital,Delhi,Shahdara,Shahdara,\N
4078,jeevanjyoti,"A/18, Gtb Chowk, Dilshad Garden","GTB Rd, Pocket B, Block B, Mcd Colony,",,Dilshad Garden,110092,22582719,28.681646,77.312744,0,<100 Bedded Hospital,Delhi,Shahdara,Seema Puri,\N
4079,Garg Hospital,"No. 8, AGCR Enclave","Opposite Karkardooma Court, Laxmi Nagar",,karkardooma,110092,4327 4444,28.653139,77.295132,0,<100 Bedded Hospital,Delhi,Shahdara,Vivek Vihar,\N
4080,Tondan hospital,D-229,"vivek vihar, delhi",,Vivek Vihar,110095,22152947,28.634973,77.071504,0,<100 Bedded Hospital,Delhi,Shahdara,Vivek Vihar,\N
4083,Red Cross Hospital Society Mat. Welfare and Child Care Hospital,"New Seema Puri,",near metro station,,Seemapuri,110095,22118752,28.67797,77.322638,0,<100 Bedded Hospital,Delhi,Shahdara,Seema Puri,\N
4084,shanti nursing home,"E-1, Panchsheel Garden",Naveen Shahdara,,shahdara,110032,22821629,28.677971,77.282614,0,<100 Bedded Hospital,Delhi,Shahdara,Shahdara,\N
4085,Sharda Medical Center,"Shop No-2,Krishna Market","Jhilmil Colony Industrial Area,",Jhilmil Colony,Jhilmil colony,110095,2216 2535,28.674618,77.311055,0,<100 Bedded Hospital,Delhi,Shahdara,Vivek Vihar,\N
4087,sugandha nursing home,"East Babarpur, Shop No.: 1E/2A","Tagore Gali, New Jaffrabad,",,shahdara,110032,22820430,28.687402,77.280256,0,<100 Bedded Hospital,Delhi,Shahdara,Shahdara,\N
4088,Pushpanjali Medical Centre,"A-14/15, Pushpanjali,",Vikas Marg Extn,,karkardooma,110092,223728,28.653916,77.308985,0,<100 Bedded Hospital,Delhi,Shahdara,Vivek Vihar,\N
4090,Surya hospital,"383/11-C, East Azad Nagar","Krishna Nagar,",,Vivek Vihar,110051,2200 2364,28.662973,77.28591,0,<100 Bedded Hospital,Delhi,Shahdara,Vivek Vihar,\N
4091,NGOststephen hospital,,,,,,23956123,28.693838,77.317,0,<100 Bedded Hospital,Delhi,Shahdara,\N,\N
4213,ESI Mayapuri-II,D-22,Facility centre,Near post office,Junk Market Mayapuri Phase-II,110064,011-28112417,28.61744429,77.11215002,0,Dispensaries,Delhi,New Delhi,Delhi Cantonment,\N
4221,CGHS Sarojini Nagar-I,Y-342-346,CGHS Dispensary Building,Near Arya Samaj Mandir,"XY Block, Sarojini Nagar",110023,011-24670555,28.57680465,77.20168771,0,Dispensaries,Delhi,New Delhi,Chanakya Puri,\N
4222,CGHS Moti-Bagh,Begam Zaidi Market,Begam Zaidi Market,Begam Zaidi Market,Moti-Bagh,110021,011-24670333,28.58430027,77.17796336,0,Dispensaries,Delhi,New Delhi,Chanakya Puri,\N
4223,President Estate,D-27,CGHS Dispensary Wing.,Near North Avenue Bus Stand,North Avenue,110004,011-23094777,28.61814915,77.20043543,0,Dispensaries,Delhi,New Delhi,Chanakya Puri,\N
4224,Family Planning Association of India,Plot no. 10,FPAI Bhawan,Near HDFC Bank,R.K.Puram Sec-4,110022,011-26711387,28.33201,77.10389,0,Community Health Center,Delhi,New Delhi,Vasant Vihar,\N
4228,Mohan Nursing Home,"40-A,",B-2,,Yamuna Vihar,110053,22913708,28.7028,77.2676,0,Community Health Center,Delhi,North-East,Yamuna Vihar,\N
4231,CGHS Yamuna Vihar,73-A,C-4,Near Bank of Maharashtra,Yamuna Vihar,110053,22565516,28.70167,77.28147222,0,Dispensaries,Delhi,North-East,Yamuna Vihar,\N
4235,CGHS Wellness Centre Sarojini Nagar-II,Q.NO. L-168-172,Block L,Near RBI Quarters Sarojini Nagar,Sarojini Nagar,110023,011-24670666,28.57641851,77.19088323,0,Dispensaries,Delhi,New Delhi,Chanakya Puri,\N
4237,ESI Seelampur,phase-3,Welcome Colony,near MCW Welcome,Seelampur,110053,22826829,28.6736124,77.2729263,0,Dispensaries,Delhi,North-East,Seelam Pur,\N
4238,CGHS Wellness Centre Nauroji Nagar,D 30,D-30,Ring Road,Nauroji Nagar,110029,011-26106127,28.57627017,77.201263,0,Dispensaries,Delhi,New Delhi,Vasant Vihar,\N
4239,CGHS Wellness Centre Nanakpura,WC-29,CGHS,Near Women Cell Crime Branch Nanakpura,Nanakpura,110021,011-24670444,28.58207227,77.16925537,0,Dispensaries,Delhi,New Delhi,Delhi Cantonment,\N
4240,CGHS Wellness Centre R.K.Puram Sec-3,"733, 735,",sec 3,Opposite NIHFW,R.K.Puram Sec-3,110022,011-26173911,28.5538766,77.17946352,0,Dispensaries,Delhi,New Delhi,Vasant Vihar,\N
4241,Institute of Liver and Biliary Sciences,D-1,Vasant Kunj,Chattarpur Metro Station,Vasant Kunj,110070,011-46300000,0,0,0,100-500 Bedded Hospital,Delhi,New Delhi,Vasant Vihar,\N
4244,Rural Community Health Care Centre,"RZ-A-116,",Road No. 4,Near Hotel Goodluck,Mahipalpur,110037,011-26782850,28.2188889,77.1883333,0,Dispensaries,Delhi,New Delhi,Vasant Vihar,\N
4245,ESI Dispensary Factory Road,Factory,Road,Opposite DTC Bus Depot,Sarojini Nagar,110023,011-24671333,28.57520995,77.19071814,0,Dispensaries,Delhi,New Delhi,Chanakya Puri,\N
4247,Delhi Govt.Dispensary Supreme Court,Tilak Marg,Supreme court of India complex,Opposite Post Office Supreme Court,Supreme Court of India,110001,011-23072634,28.6213333,77.2382222,0,Dispensaries,Delhi,New Delhi,Chanakya Puri,\N
4250,CGHS Wellness Centre Lodhi Road II,"Qtr.no. 1, 3, 5, 9",Block 4,Near NDMC School,Lodhi Colony,110003,011-24611442,28.5827484,77.225606,0,Dispensaries,Delhi,New Delhi,Chanakya Puri,\N
4253,CGHS Wellness Centre R.K.Puram Sec-6,CGHS Building,R.K.Puram,Near Mother Dairy,R.K.Puram sec-6,110022,011-26175490,28.56513011,77.1735662,0,Dispensaries,Delhi,New Delhi,Vasant Vihar,\N
4255,CGHS Wellness Centre Kali Bari,DIZ Area,Udyan marg,Near Birla Mandir,Kalibari Marg,110001,011-23743142,28.62889609,77.20007204,0,Dispensaries,Delhi,New Delhi,Chanakya Puri,\N
4262,Maternity & Gynae Hospital R.K.Puram sec-5,R.K.Puram,sec-5,Tamil Sangam Marg,R.K.Puram,110022,011-26174490,28.5655173,77.1768849,0,<100 Bedded Hospital,Delhi,New Delhi,Vasant Vihar,\N
4264,Palika Kendra Allopathic Dispensary,Ground Floor,Palika Kendra,,Cannaught Place,110001,011-23368548,28.62829263,77.21560709,0,Dispensaries,Delhi,New Delhi,Chanakya Puri,\N
4265,Community Hall Allopathic Dispensary,1st,floor,punchkuian Road,punchkuian Road,110001,011-23342957,28.64196636,77.20283462,0,Dispensaries,Delhi,New Delhi,Chanakya Puri,\N
4266,Baird Lane Allopathic Dispensary,Poly clinic complex,1st Floor,Oppsite Lady Harding Medical College,Bhagat Sing Marg,110001,011-23347603,28.63303017,77.21127199,0,Dispensaries,Delhi,New Delhi,Chanakya Puri,\N
4267,Babar Road Allopathic Dispensary,42,Ground Floor,Dispensary Complex,Babar Road,110001,011-23739285,28.62956974,77.23406657,0,Dispensaries,Delhi,New Delhi,Chanakya Puri,\N
4268,H.C.M. Lane Allopathic Dispensary,Dispensary,Complex,Janpath,Harish Chand Mathur Lane,110001,011-23717670,28.62189413,77.22093498,0,Dispensaries,Delhi,New Delhi,Chanakya Puri,\N
4269,Golf Link Allopathic Dispensary,Plot no. 213,Dispensary,Complex,Golf Link,110003,011-24652762,28.6003156,77.23065398,0,Dispensaries,Delhi,New Delhi,Chanakya Puri,\N
4270,Lodhi Road Allopathic Dispensary,Dispensary Complex,Aliganj,Near Jor Bagh Metro Station,Lodhi Road Aliganj,110003,011-24652278,28.58403076,77.21523246,0,Dispensaries,Delhi,New Delhi,Chanakya Puri,\N
4271,Kidwai Nagar Allopathic Dispensary,H.No.10,South,Market,East Kidwai Nagar,110023,011-24646094,28.57141558,77.21561996,0,Dispensaries,Delhi,New Delhi,Chanakya Puri,\N
4272,Sarojini Nagar Allopathic Dispensary,CWC,Complex,Near Post Office,Sarojini Nagar,110023,011-24678905,28.57643841,77.2011908,0,Dispensaries,Delhi,New Delhi,Chanakya Puri,\N
4274,Netaji Nagar Allopathic Dispensary,Netaji,Nagar,Netaji Nagar Market,Netaji Nagar,110023,011-24673479,28.57537555,77.18818523,0,Dispensaries,Delhi,New Delhi,Chanakya Puri,\N
4275,Bapudham Allopathic Dispensary,Bapu,Dham,Near Baratghar,Bapudham,110021,011-24101218,28.59512917,77.17729381,0,Dispensaries,Delhi,New Delhi,Chanakya Puri,\N
4277,Dharam Marg Dispensary Complex,2nd Floor,Dharam Marg,Palika Health Complex,Chankyapuri,110021,011-24121015,28.60235018,77.18640769,0,Dispensaries,Delhi,New Delhi,Chanakya Puri,\N
4280,ESI Dispensary Mayapuri Phase-I,B-309,Dda,Shopping Centre,ESI Dispy. Mp.1,110064,011-28114516,28.62744074,77.1219274,0,Dispensaries,Delhi,New Delhi,Delhi Cantonment,\N
4281,CGHS Wellness Centre Chankyapuri,"D-II/257,259",Vinay Marg,Yashwant Place,Chankyapuri,110021,011-24673777,28.58595817,77.19623654,0,Dispensaries,Delhi,New Delhi,Chanakya Puri,\N
4282,CGHS Wellness Centre Gole Market,CGHS Building,"DIZ Area, Sec.-II",Near CNG Pump,Gole Market,110003,011-23743810,28.63415143,77.20296282,0,Dispensaries,Delhi,New Delhi,Chanakya Puri,\N
4284,CGHS Dispensary Pandara Road,D-II/365-367,Pandara,Road,Pandara Road,110003,011-23385040,28.60343292,77.22795328,0,Dispensaries,Delhi,New Delhi,Chanakya Puri,\N
4286,CGHS Dispensary South Avenue,153,South Avenue,infront mother dairy,South Avenue,110011,011-23013490,28.608037,77.199793,0,Dispensaries,Delhi,New Delhi,Chanakya Puri,\N
4288,CGHS Dispensary Zakir Husain Road,"CGHS Building,","CGHS Building,",Near Indiagate,Dr. Z.H.Road,110003,011-23383724,28.60562905,77.23474841,0,Dispensaries,Delhi,New Delhi,Chanakya Puri,\N
4293,CGHS Dispensary Telegraph Lane,18-A,Telegraph Lane,Diwanchand Imangning centre,Near Bhartiya Vidya Bhawan,110001,011-23326601,28.62293163,77.22329866,0,Dispensaries,Delhi,New Delhi,Chanakya Puri,\N
4295,CGHS Dispensary Lodhi Road Aliganj,CGHS Building,Near Lodhi Road,CGHS Ayurvedic hospital,Lodhi Road,110003,011-24611538,28.58240008,77.21887995,0,Dispensaries,Delhi,New Delhi,Chanakya Puri,\N
4297,CGHS Dispensary Inderpuri,"Flat No. 647, 648",Krishi Kunj,Near Loha Mandi,Inder Puri,110012,011-25836573,28.63584219,77.14573298,0,Dispensaries,Delhi,New Delhi,Delhi Cantonment,\N
4298,CGHS Dispensary Naraina Vihar,C-Block,C-Block,Near community Centre,Naraina Vihar,110028,011-25778775,28.62481291,77.14345526,0,Dispensaries,Delhi,New Delhi,Delhi Cantonment,\N
4299,CGHS Dispensary R.K.Puram Sec-12,"Qr. 810, 818 ?›ƒ?ªƒ?? 825",Sector ?›ƒ?ªƒ?? XII,,R.K. Puram,110022,011-26170472,28.56547975,77.17690229,0,Dispensaries,Delhi,New Delhi,Vasant Vihar,\N
4301,CGHS Dispensary Sarojini Nagar market,"G ?›ƒ?ªƒ?? 150, 152,","154, 156",Sarojini Nagar Market,Sarojini Nagar,110023,011-24670777,28.57848469,77.19503963,0,Dispensaries,Delhi,New Delhi,Chanakya Puri,\N
4302,CGHS Dispensary R.K.Puram Sec-4,Q.No. 817-818,Sector ?›ƒ?ªƒ?? IV,Near R.K.Puram  Sec-5 Red Light,R.K.Puram,110022,011-26175132,28.56305879,77.17895613,0,Dispensaries,Delhi,New Delhi,Vasant Vihar,\N
4304,CGHS Dispensary Munirka,DDA,Flat,JNU Campus,Munirka,110067,011-26107983,28.5503091,77.17015435,0,Dispensaries,Delhi,New Delhi,Delhi Cantonment,\N
4374,CGHS Dispensary North Avenue,31,North Avenue,,North Avenue,110001,011-23094420,28.61891936,77.20028503,0,Dispensaries,Delhi,New Delhi,Chanakya Puri,\N
4375,CGHS Dispensary  Laxmibai Nagar,D-15,CGHS  Disp Building,Near  Navyug  School,Laxmibai Naga,110023,011-26874643,28.5753822,77.20505352,0,Dispensaries,Delhi,New Delhi,Chanakya Puri,\N
4376,CGHS Dispensary Nangal Raya,CGHS Disp,"D Block, Janak Puri",Near Sarvodaya Kanya Vidyalaya,Nangal Raya,110046,011-28521863,28.60871486,77.10637557,0,Dispensaries,Delhi,New Delhi,Delhi Cantonment,\N
4377,CGHS Dispensary R.K.Puram sec-2,CGHS  Disp Building,Sector  ?›ƒ?ªƒ??  II,OPP. Venkateshwar Temple,R.K.  Puram,110022,011-26175323,28.55,77.16,0,Dispensaries,Delhi,New Delhi,Vasant Vihar,\N
4378,CGHS Dispensary R.K.Puram Sec-8,CGHS Disp. Building,Sector _ VIII,,R.K. Puram,110022,011-26173988,28.57154602,77.16724848,0,Dispensaries,Delhi,New Delhi,Vasant Vihar,\N
4400,Dr. N. C. Joshi,"Opposite Ajmal Khan Park,",East Park Road,,Karol Bagh,110005,011-2362 2498,28.65332314,77.19939338,0,Sub-District Hospital,Delhi,Central,Karol Bagh,\N
4427,Goyal Medical Centre,E-2/8,E-2/8,Near DPS Vasant Vihar,Vasant Vihar,110057,011-26146940,28.58669444,77.05719444,0,<100 Bedded Hospital,Delhi,New Delhi,Vasant Vihar,\N
4428,Prem Chiktsa Kendra,Ring Road,SECTOR-12,NEAR CGHS DISPRNSARY,R.K.Puram,110022,011-26195636/37,28.57413889,77.17694444,0,<100 Bedded Hospital,Delhi,New Delhi,Vasant Vihar,\N
4429,Primus Super Specialty Hospital,"2,",Chandragupt Marg,,"Chanakyapuri,",110021,011-66206620,28.59277777,77.18169444,0,100-500 Bedded Hospital,Delhi,New Delhi,Chanakya Puri,\N
4430,NOVA IVI FERTILITY Centre,B2 / 1A,Africa Avenue,,Safdarjung enclave,110029,011-66193700,28.7086111,77.1855556,0,<100 Bedded Hospital,Delhi,New Delhi,Vasant Vihar,\N
4431,DR GROVERS NURSING HOME,ER,42,NEAR &#39;D&#39; PARK,INDERPURI,110012,,28.6285,77.14669444,0,<100 Bedded Hospital,Delhi,New Delhi,Delhi Cantonment,\N
4432,ESI Subji Mandi,15-Apr,Behind Birla Mills,"Near 15/4 Block, Near Nagia Park",Shakti Nagar,110007,1123845932,28.67757405,77.19637026,0,Dispensaries,Delhi,Central,Civil Lines,\N
4435,Harnam Singh Charitable Medical Centre,May-49,W.E.A,Karol Bagh,New Delhi,110005,011-25738059,28.63,77.22,0,Primary Health Centre,Delhi,Central,Karol Bagh,\N
4436,Rama Krishna Mission,"1, Arya Samaj Road",Karol Bagh,,New Delhi,110005,011-28757608,28.6392,77.2085,0,Primary Health Centre,Delhi,Central,Karol Bagh,\N
4437,DGD Old Sectretariat,Old Sectretaria,Delhi Vidhansabha complex,,Civil Line,110054,011-23890330,28.68459773,77.22336741,0,Dispensaries,Delhi,Central,Civil Lines,\N
4442,Jeewan Mala Hospital,67/1,"Dori Walan, Karol Bagh",Near Rohtak Road,Karolbagh,110005,23511474,28.65,77.2,0,100-500 Bedded Hospital,Delhi,Central,Karol Bagh,\N
4444,Kolmet Hospital,7-B,"Pusa Road, Karol Bagh",,Karolbagh,110005,1145099999,28.6435,77.1875,0,<100 Bedded Hospital,Delhi,Central,Karol Bagh,\N
4445,DGD Gulabi Bagh,Delhi Govt. Flats Complex,Gulabi Bagh,,Gulabi Bagh,110007,011-23654536,28.67478708,77.18971223,0,Dispensaries,Delhi,Central,Civil Lines,\N
4446,Grover Medical Centre,5091,"Hauz Quzi, Sirkiwalan",,Chandni Chowk,110006,23215625,28.65,77.23,0,<100 Bedded Hospital,Delhi,Central,Kotwali,\N
4447,DGD Tis Hazari,"Room No-141, 1st Floor",Tis Hazari Court Complex,Tis Hazari,Kashmiri Gate,110054,011-23950919,28.66640106,77.2199285,0,Dispensaries,Delhi,Central,Civil Lines,\N
4448,Sunder Lal Jain Eye Hospital,Motia Khan,"Sadar Thana Road, Motia Khan",,Nabi Karim Paharganj,110055,1123671231,28.648625,77.210031,0,<100 Bedded Hospital,Delhi,Central,Kotwali,\N
4449,DGD Trade and Tax ITO,Vyapar Bhawan,IP Estate,New Delhi,ITO,110002,011-23766307,28.62879,77.243444,0,Dispensaries,Delhi,Central,Kotwali,\N
4451,Navjoyti Eye Centre,90,Daryaganj,Hindi Park,Daryaganj,110002,23280018,28.64,77.24,0,<100 Bedded Hospital,Delhi,Central,Kotwali,\N
4452,UHC Balmiki Basti PSM MAMC,"Mualana Azad Medical College, PSM",Bahadur Shah Zafar Marg,,ITO,110002,011-23239271,28.63312623,77.24182098,0,Primary Health Centre,Delhi,Central,Kotwali,\N
4453,MC & W Teliwara,"MCW Center, 2558","Sarwan gali , teliwara",teliwara,teliwara,110006,23541611,28.66135689,77.21426311,0,M&CW Center,Delhi,Central,Kotwali,\N
4454,DGD Sachvilaya,Delhi Govt. Dispensary,Room No. 204-205,"IInd Floor, New Delhi-110001",Sachvilaya,110001,23392406,28.63003334,77.25128219,0,Dispensaries,Delhi,Central,Kotwali,\N
4455,Neera Eye Centre,92-B,Daryaganj,Opposite Hindi Park,Daryaganj,110002,1123270775,28.65,77.23,0,<100 Bedded Hospital,Delhi,Central,Kotwali,\N
4456,Lady Reading Heatlh School,Rani Jhansi Road,Chowk Nai Basti,"Sadar Bazar,",Bara Hindu Rao,110006,9958063819,28.66,77.2,0,Primary Health Centre,Delhi,Central,Kotwali,\N
4458,Pariwar Sewa Sanstha (NGO),"G-31,","Sector-3, Rohini",,ROHINI,110085,27510005,28.702199,77.101648,0,<100 Bedded Hospital,Delhi,North West,Rohini,\N
4459,Chhoto Devi Memorial Charitable Society (NGO),"H.No.4,","Village Nithari, Delhi-86",,,110086,9212971727,28.703696,77.063088,0,<100 Bedded Hospital,Delhi,North West,Rohini,\N
4460,NGO Lok Kalyan Samiti,"Sucheta Bhawan (Near ITO),  New-Delhi 110 002, ITO,","Vishnu Digamber Marg,","Vikram Nagar,",New Delhi,110002,23235505,28.63,77.22,0,<100 Bedded Hospital,Delhi,Central,Kotwali,\N
4461,Baba Girvar Das (NGO),"6/25, Main Barwala Road,","Begumpur, Delhi",,BEGAMPUR VILLAGE,110086,9555643231,28.724236,77.064688,0,<100 Bedded Hospital,Delhi,North West,Kanjhawla,\N
4462,NGO Parivar Sewa Clinic,"5439, Arya Samaj Road",Karol Bagh,Dev Nagar,"Karol Bagh, Delhi-5",110005,25736101,28.652,77.1857,0,Primary Health Centre,Delhi,Central,Kotwali,\N
4463,ESI Dispensary Mori Gate,Mori Gate,Kashmiri Gate,Near Tis Hazari,,110006,011-23974744,28.66,77.22,0,Dispensaries,Delhi,Central,Kotwali,\N
4465,Arora Nursing Home,BE-1,Shalimar Bagh,,Shalimar Bagh,110088,27488756,28.703486,77.163295,0,<100 Bedded Hospital,Delhi,North West,Saraswati Vihar,\N
4466,Upchar Nursing Home,"A-95,",Ashok Vihar Delhi,,ASHOK VIHAR,110052,27210012,28.688455,77.177,0,<100 Bedded Hospital,Delhi,North West,Saraswati Vihar,\N
4467,ESI Dispensary Subji Mandi,ESI Subji Mandi Dispensary,"Behind Birla Mills, Near-15/04 Block",Near Nagia Park,Subji Mandi,110007,23845932,28.67757405,77.19637026,0,Dispensaries,Delhi,Central,Civil Lines,\N
4468,CGHS Chandani Chowk,CGHS Dispensary no-8,Chandani Chowk,Near Moti Cinema,Chandani Chowk,110054,011-23866892,28.70802449,77.22408108,0,Primary Health Centre,Delhi,Central,Kotwali,\N
4469,Avantika Hospital,A-68,Sector-02,,Rohini,110085,27511118,28.7083,77.1075,0,<100 Bedded Hospital,Delhi,North West,Rohini,\N
4470,Swastik Maternity Center,"G-20/23-24,",Sector- 7  Rohini,,ROHINI,110085,9811520262,28.726381,77.082729,0,<100 Bedded Hospital,Delhi,North West,Rohini,\N
4471,Sunder Lal Jain Hospital,Ph-III,Ashok Vihar,,ASHOK VIHAR,110052,47030900,28.69197,77.1312,0,100-500 Bedded Hospital,Delhi,North West,Saraswati Vihar,\N
4472,ESI Dispensary Shastri Nagar,ESI Dispesnary Shastri Nagar,Shastri Nagar,Near Shastri Nagar Metro Station,"Shastri Nagar, Delhi",110052,23640492,28.67,77.19,0,Dispensaries,Delhi,Central,Kotwali,\N
4473,Capital Nursing Home and Hospital,C-3/7-A,Rana Pratap Bagh,,,110007,27450440,28.702155,77.161945,0,<100 Bedded Hospital,Delhi,North West,Saraswati Vihar,\N
4474,Spring Dales Medical Centre,"D-4,",Prashant Vihar Delhi,,ROHINI,110085,Dr. R. L. Verma,28.715741,77.135145,0,<100 Bedded Hospital,Delhi,North West,Rohini,\N
4475,Shrivastava Nursing Home,"D-12/151-152,","Sec-8, Rohini, Delhi",,ROHINI,110085,,28.7127,77.13805,0,<100 Bedded Hospital,Delhi,North West,Rohini,\N
4476,ESI Dispensary Inder Lok,ESI Dipsnesary Inder Lok,Behind Choti Masjid,Inderlok,"Inderlok , Delhi",110035,23657807,28.67231241,77.16752797,0,Dispensaries,Delhi,Central,Kotwali,\N
4477,Citizen Maternity Hospital,B-2/7,Ashok Vihar-II,Near Croma Mega Malls,Ashok Vihar,110052,27251400,28.688455,77.17575,0,<100 Bedded Hospital,Delhi,North West,Saraswati Vihar,\N
4479,Savitri Hospital,"E-505, 565",Shakurpur Delhi,,,110034,,28.684625,77.13385,0,<100 Bedded Hospital,Delhi,North West,Saraswati Vihar,\N
4480,Balak Ram Hospital,Balak Ram Hospital,Timarpur,,CIVIL LINE,110054,1123814204,28.705424,77.225293,0,<100 Bedded Hospital,Delhi,Central,Civil Lines,\N
4481,Savera Hospital,"3,Sainik Vihar,",Pitam Pura,,,110034,,28.68826667,77.12225,0,<100 Bedded Hospital,Delhi,North West,Saraswati Vihar,\N
4483,Sarthak Hospital,"Sector-7,",Rohini Delhi,,,110085,,28.709036,77.113085,0,<100 Bedded Hospital,Delhi,North West,Rohini,\N
4485,D.R. Maternity & Nursing Home,C-2/3,"Pragati Market, Ashok Vihar II",,Ashok Vihar,110052,27229394,28.695354,77.175836,0,<100 Bedded Hospital,Delhi,North West,Saraswati Vihar,\N
4486,Saroj Hospital,Sector-14 Extn.,Rohini Madhuban Chowk,,,110085,27903333,28.70601667,77.128516,0,<100 Bedded Hospital,Delhi,North West,Rohini,\N
4487,ESI Dispensary Chuna Mandi Paharganj,ESI Dispensary Chuna Mandi Paharganj,"Chuna Mandi, gali No.-10",Paharganj,"Pahargaj, New Delhi",110055,23580679,28.64279665,77.21011787,0,Dispensaries,Delhi,Central,Kotwali,\N
4489,CGHS Subji Mandi,23-Jan,Shakti Nagar,Shakti Nagar,New Delhi,110007,011-23845162,28.68029664,77.19767878,0,Dispensaries,Delhi,Central,Civil Lines,\N
4490,Santom Hospital,"D-5 & 6,",Prashant Vihar,,ROHINI,110085,2756 1024,28.713972,77.138861,0,<100 Bedded Hospital,Delhi,North West,Rohini,\N
4492,Dayal Hospital and Maternity Centre,Flat No. 57,"Vishram Chowk, Sector-03, Pocket H-33",Near Shriram Chowk,Rohini,110085,27514386,28.715,77.109,0,<100 Bedded Hospital,Delhi,North West,Rohini,\N
4493,Sai Drishti Maternity Centre,"G-1/63,",Sec-15 Rohini,,ROHINI,110085,,28.730919,77.127731,0,<100 Bedded Hospital,Delhi,North West,Rohini,\N
4494,Northern Railway Hospital,Railway Hospital,Chandni Chowk,Fathepuri Mode,Chandni Chowk,110006,9717631546,28.661212,77.222595,0,<100 Bedded Hospital,Delhi,Central,Kotwali,\N
4495,CGHS Dev Nagar,Block No.12,Govt. Quarters.,Opp. Mother dairy,"Karol Bagh, New Delhi-5",110005,25860275,28.65438862,77.18343817,0,Dispensaries,Delhi,Central,Karol Bagh,\N
4497,CGHS Rajpur Road,5 Rajpur Road,Civil Line,Near Aruna Asaf Ali Hospital,New Delhi,110054,011-23973646,28.66918432,77.21782879,0,Dispensaries,Delhi,Central,Civil Lines,\N
4498,CGHS Dev Nagar,Block No.12,Govt. Quarters.,Opp. Mother dairy,"Karol Bagh, New Delhi-5",110005,25860275,28.65438862,77.18343817,0,Dispensaries,Delhi,Central,Karol Bagh,\N
4500,CGHS Timarpur,Hancer Road,Timarpur,Near Police Station,Timarpur,110054,011-23813808,28.70802449,77.22408108,0,Dispensaries,Delhi,Central,Civil Lines,\N
4501,Rashmi Hospital,"JP-6,",Maurya Enclave Pitam Pura,,,110034,,28.703053,77.146646,0,<100 Bedded Hospital,Delhi,North West,Rohini,\N
4502,CGHS C.G. Road,Aram Bagh,Behind Paharganj police station,Paharganj,"Pahargaj, New Delhi-55",110055,23676019,28.64230804,77.2084171,0,Dispensaries,Delhi,Central,Kotwali,\N
4504,Prashant Nursing Home,"&#34;C-1/17,",Prashant Vihar,DELHI,,110085,27564555,28.715741,77.135145,0,Community Health Center,Delhi,North West,\N,\N
4508,CGHS New Rajinder Nagar,"Near Punjab National Bank Shankar Road,",New Rajender Nagar,New Rajender Nagar,"New Rajender Nagar, Delhi",110055,28742850,28.63572655,77.18438922,0,Dispensaries,Delhi,Central,Karol Bagh,\N
4510,CGHS Minto Road,"Ground Floor Hostel,","Minto Road, N.D",Minto Road,"Minto Road, New Delhi-02",110002,23234625,28.63918195,77.2269856,0,Dispensaries,Delhi,Central,Kotwali,\N
4511,CGHS Minto Road,"Ground Floor Hostel,","Minto Road, N.D",Minto Road,"Minto Road, New Delhi-02",110002,23234625,28.63918195,77.2269856,0,Dispensaries,Delhi,Central,Kotwali,\N
4513,Dr. Shroff Charity Eye Hospital,5027,"Kedar Nath Road, Daryaganj",,Daryganj,110002,9899287970,28.64,77.24,0,<100 Bedded Hospital,Delhi,Central,Kotwali,\N
4514,Northex Stone Clinic,"A-7,",Gujranwala Town,,,110009,27465435,28.698674,77.188056,0,Community Health Center,Delhi,North West,\N,\N
4515,North Delhi Nursing Home,PH-II,Ashok Vihar,,,110052,27422131,28.696377,77.179273,0,<100 Bedded Hospital,Delhi,North West,Saraswati Vihar,\N
4516,Sanjivini Nursing Home,13-D,Kamla Nagar,New Delhi,,110007,011-23843234,28.68,77.2,0,<100 Bedded Hospital,Delhi,Central,Civil Lines,\N
4518,Dr BD Attam Hospital and Medical Research Centre,10,"Pragati Market, Ashok Vihar II",,Ashok Vihar,110052,27220564,28.69622,77.173,0,<100 Bedded Hospital,Delhi,North West,Saraswati Vihar,\N
4521,CGHS Dispensary Dwarka,CGHS Dwarka,"PHC Complex,",Near Dwarka Flyover,Palam,110045,25056722,28.592133,77.082697,0,Dispensaries,Delhi,South-West,Dwarka,\N
4522,Garg Nursing Home,"3675/11,","Street No.11, Jai Mata Market, Trinagar",,,110035,27392112,28.71,77.105,0,<100 Bedded Hospital,Delhi,North West,Saraswati Vihar,\N
4523,CGHS Daryaganj,"Behind Golcha Cinema,","Near Post Office Daryaganj,","Near Post Office Daryaganj,",New Delhi-55,110055,23273043,28.64453508,77.23952641,0,Dispensaries,Delhi,Central,Kotwali,\N
4525,Mohan Eye Institute,11-B,"Ganga Ram Hospital Marg, Karol Bagh",,Karol Bagh,110060,1125787655,28.643408,77.19073,0,<100 Bedded Hospital,Delhi,Central,Karol Bagh,\N
4527,Gouri Hospital Ltd,30,Malka Ganj,Jawahar Nagar,New Delhi,110007,011-23854735,28.679735,77.208241,0,<100 Bedded Hospital,Delhi,Central,Civil Lines,\N
4528,Medha Hospital,"L-p-12-a, B,","Maya Enclave, Pitampura Delhi 110034",,,110034,27323960,28.698998,77.138417,0,<100 Bedded Hospital,Delhi,North West,Saraswati Vihar,\N
4529,CGHS Dispensary Palam Colony,CGHS Dispensary Palam colony,Manglapuri,Near Sabzi Mandi,,110045,25035839,28.590198,77.087088,0,Dispensaries,Delhi,South-West,Dwarka,\N
4530,CGHS Pusa Road,"29, Pusa Road,",New Rajinder Nagar,New Rajinder Nagar,"New Rajinder Nagar, N.D-60",110060,28758071,28.64448174,77.18953332,0,Dispensaries,Delhi,Central,Karol Bagh,\N
4531,Max Medcentre,"B Twin Tower, Near NTower, Wazirpur District Centre,","Pitampura, New Delhi, Delhi 110034",,,110034,4735 1844,28.695364,77.153549,0,District Hospital,Delhi,North West,Saraswati Vihar,\N
4533,Max Hospital,"FC-50,  Phone: 011 6642 2222","C & D Block, Shalimar Bagh, New Delhi",,,110088,6642 2222,28.716413,77.154585,0,District Hospital,Delhi,North West,\N,\N
4534,CGHS Paharganj,"Central Govt. Flats,","Chitra Gupta Road,","Paharganj,","Paharganj,  N.D-55",110055,23587511,28.64230804,77.2084171,0,Dispensaries,Delhi,Central,Kotwali,\N
4535,ESI Palam Colony,ESI Dispensary,Sector 7,Opposite Shruti Appartment,Dwarka,110075,25088415,28.583824,77.072469,0,Dispensaries,Delhi,South-West,Dwarka,\N
4537,Manna Clinic and Maternity Home,"WZ-1367,","Rani Bagh, Delhi-34",,,110034,27025259,28.686694,77.129393,0,Community Health Center,Delhi,North West,Saraswati Vihar,\N
4538,Mahavir International Eye Hospital,6550,"Main Qutab Road, Nabi Karim Paharganj",,Paharganj,110055,1123510770,28.650912,77.21561,0,<100 Bedded Hospital,Delhi,Central,Kotwali,\N
4539,ESI Najafgarh,ESI Dispensary House No. 1281-82,Najafgarh,Krishna Mandir Gali,Najafgarh,110043,25012143,28.611535,76.979403,0,Dispensaries,Delhi,South-West,Najafgarh,\N
4540,Maharaja Agarsain Hospital (Charitable),"Block D, Phase 1,","Ashok Vihar, New Delhi, Delhi",,,110052,27129193,28.69321,77.164693,0,<100 Bedded Hospital,Delhi,North West,Rohini,\N
4543,Kesar Hospital,Block AH,"Shalimar Bagh, New Delhi, Delhi 110088",,,110088,27472002,28.706732,77.163732,0,<100 Bedded Hospital,Delhi,North West,Saraswati Vihar,\N
4547,Dr. Sethi Panchsheel Nursing Home,24/56,Shakti Nagar,New Delhi,Shakti Nagar,110007,23841242,28.67,77.19,0,<100 Bedded Hospital,Delhi,Central,Civil Lines,\N
4550,Dr. Munjal Clinic,B-1430,Main Shastri Nagar,Market,New Delhi,110052,011-23646786,28.67417,77.18001,0,<100 Bedded Hospital,Delhi,Central,Civil Lines,\N
4551,Chaudhary Eye Centre,4802,"Bhagat Ram Road, Daryaganj",,Daryaganj,110002,1123243717,28.643098,77.243666,0,<100 Bedded Hospital,Delhi,Central,Kotwali,\N
4554,Hemraj Jain Hospital,A-6,"Outer Ring Road, Pitampura, Pushpanjali Enclave",Near Police Line,Pitampura,110034,42411719,28.695154,77.110077,0,<100 Bedded Hospital,Delhi,North West,Saraswati Vihar,\N
4555,Kaya Kalp Hospital,"12, Jharoda Majra",Part-II,Near Police Station,New Delhi,110084,011-27614600,28.73,77.2,0,<100 Bedded Hospital,Delhi,Central,Civil Lines,\N
4556,Parmarth Mission Hospital,23-Jul,Shakti Nagar,Shakti Nagar,New Delhi,110007,011-23842300,28.680963,77.197905,0,<100 Bedded Hospital,Delhi,Central,Civil Lines,\N
4557,Kesar Nursing Home Dabri,Street Number 12,Vashist Park Sagar Pur,,Sagar Pur,110046,28523683,28.609027,77.101,0,<100 Bedded Hospital,Delhi,South-West,Najafgarh,\N
4558,Sanjay Hospital And Maternity Centre Palam Colony,R Z 11,Palam,Main Road Palam Colony,,110045,2508 5241,28.587862,77.084112,0,<100 Bedded Hospital,Delhi,South-West,Dwarka,\N
4559,Jaipur Golden Hospital,2,"Institutional Area, Sector-02, Rohini",,Rohini,110085,27907000,28.69743,77.10951,0,100-500 Bedded Hospital,Delhi,North West,Rohini,\N
4560,Sharma Medical Center,B-112,Subhadra Colony,Daya Basti,New Delhi,110035,011-23651395,28.669743,77.179577,0,<100 Bedded Hospital,Delhi,Central,Kotwali,\N
4561,Sir Ganga Ram Hospital,Ganga Ram Hospital,Old Rajender Nagar,,Karolbagh,110060,1142254000,28.638371,77.189464,0,>500 Bedded Hospital,Delhi,Central,Karol Bagh,\N
4562,Jhamb Maternity and Medical Centre,BP-59,Shalimar Bagh,,Shalimar Bagh,110088,27476609,28.703486,77.163295,0,<100 Bedded Hospital,Delhi,North West,Saraswati Vihar,\N
4563,Saba Nursing Home,A1/1,DDA Flats,Inderlok,New Delhi,110035,011-23659982,28.679735,77.208241,0,<100 Bedded Hospital,Delhi,Central,Kotwali,\N
4564,Jivodaya Hospital,Phase-1,Institutional Area,Near Deep Market,Ashok Vihar,110052,27253204,28.6925,77.17195,0,<100 Bedded Hospital,Delhi,North West,Saraswati Vihar,\N
4565,Nazar Kanwar Surana Hospital,219-220,N.K. Surana Marg,Gulabi Bagh,New Delhi,110007,011-23640951,28.675024,77.191108,0,100-500 Bedded Hospital,Delhi,Central,Kotwali,\N
4567,Jiwan Charitable Hospital,R-226/227,Mangolpuri,,Mangolpuri,110083,27916689,28.723,77.0838,0,<100 Bedded Hospital,Delhi,North West,Rohini,\N
4568,Kanta Sethi Hospital,A-777-778,"Main Market, Avantika, Sector-02, Rohini",,Rohini,110085,27525262,28.70131,77.09866,0,<100 Bedded Hospital,Delhi,North West,Rohini,\N
4569,Bhagwan Mahavir Hospital,Bhagwan Mahavir Hospital,"Sector-14 Extension, Near Madhuban Chowk, Rohini",,Rohini,110085,27550441,28.7,77.13,0,<100 Bedded Hospital,Delhi,North West,Rohini,\N
4572,St. Stephens Hospital,St. Stephens Hospital,Tis Hazari,Near Tis Hazari Metro Station,Pulbangash,110054,1123966025,28.666816,77.214757,0,>500 Bedded Hospital,Delhi,Central,Kotwali,\N
4573,Sant Parmanand Hospital,18,"Shamnath Marg, Trust Hospital, Civil Line",Near Civil Line Metro Station,CIVIL LINE,110054,1123981260,28.677867,77.224241,0,100-500 Bedded Hospital,Delhi,Central,Civil Lines,\N
4574,Tirath Ram Shah Hospital,2,"RBI, Isher Das Sawhney Marg Rajpur Road",,CIVIL LINE,110054,1123972487,28.670374,77.216216,0,100-500 Bedded Hospital,Delhi,Central,Civil Lines,\N
4575,Dr. B.L.Kapoor Memorial Hospital,Dr. B.L.Kapoor Memorial Hospital,Rajender Place,Near Rajender Place Metro Station,Karolbagh,110005,1130653767,28.643636,77.180253,0,100-500 Bedded Hospital,Delhi,Central,Karol Bagh,\N
4577,Vishwa Yuvak Kendra,Circular Road,Pt. Uma Shanakr Dixit Marg,Opp Chanakyapuri Police station,Chankyapuri,110021,011 - 23013631,28.6039133,77.1950105,0,Dispensaries,Delhi,New Delhi,Chanakya Puri,\N
4578,Guru Nanak Eye Hospital,Minto Road,Mahavir Ranjeet Singh Marg,,Delhi Gate,110002,1123235145,28.638345,77.232589,0,100-500 Bedded Hospital,Delhi,Central,Kotwali,\N
4582,Maulana Azad Institute of Dental Science,2,Bahadur Shah Zafar Marg,Near Lok Naya Hospital,Delhi Gate,110002,1123233925,28.635765,77.239884,0,<100 Bedded Hospital,Delhi,Central,Kotwali,\N
4583,Govind Ballabh Pant Hospital,1,Jawaharlal Nehru Marg,,Delhi Gate,110002,1123234242,28.638778,77.234648,0,<100 Bedded Hospital,Delhi,Central,Kotwali,\N
4600,Aggarwal Hospital,B-16,"Main Road, Shalimar Bagh",,Shalimar Bagh,110088,27492406,28.712951,77.150666,0,<100 Bedded Hospital,Delhi,North West,Saraswati Vihar,\N
4609,Brahm Shakti Hospital,"U-1/76,",Budh Vihar,,Budh Vihar,110086,27537967,28.71231,77.08073,0,District Hospital,Delhi,North West,Rohini,\N
4610,Doctors Diagnostic Centre Najafgarh,"1441 A, Ward No 1& 5",Saini Mohalla,"Opp RHTC Najafgarh, Primary Health Centre",Najafgarh,110043,2501 4099,28.612762,76.987237,0,<100 Bedded Hospital,Delhi,South-West,Najafgarh,\N
4614,Bhagwati Hospital,CS/OCF-6,"Sector-13, Rohini",Near Printer Apartment,Rohini,110085,27868935,28.719233,77.129397,0,<100 Bedded Hospital,Delhi,North West,Rohini,\N
4621,Muni Maya Ram Jain Hospital,KD-Block,"Muni Maya Ram Marg, Pitampura",,Pitampura,110034,27317401,28.700089,77.141517,0,<100 Bedded Hospital,Delhi,North West,Saraswati Vihar,\N
4628,VIJAY NURSING HOME,F-24/25,"Opposite C Block, Sector-03, ROHINI",,Rohini,110085,,28.702335,77.101516,0,<100 Bedded Hospital,Delhi,North West,Rohini,\N
4636,Asha Community Health and Development Society,Asha Society,Sector-VI,Near CNG Petrol Pump,"Ekta Vihar, Near Mohan Singh Market",110022,011-26196857,28.56808333,77.17475,0,Dispensaries,Delhi,New Delhi,Vasant Vihar,\N
4637,Dr B R Sur Homoeopathic Medical college and Hospital,Nanakpura,Nanakpura,Near Nanakpura Gurudwara,south Motibagh,110021,011-24105298,28.58605556,77.16811111,0,<100 Bedded Hospital,Delhi,New Delhi,Delhi Cantonment,\N
4638,DGD Patiala House Court Dispensary,Patiala House,Court Complex,Near Tialak Marg Police Station,Tilak Marg Patiala House court,110001,011-23384209,28.61652535,77.23435072,0,Dispensaries,Delhi,New Delhi,Chanakya Puri,\N
4644,Orthoplus Hospital,RZ-B-28,Gopal Nagar,,Najafgarh,110043,28012195,28.611391,76.975674,0,<100 Bedded Hospital,Delhi,South-West,Najafgarh,\N
4648,Children & Maternity Centre,A-6/6,"Sec-16, Rohini",,Rohini,110085,27852066,28.741798,77.121485,0,<100 Bedded Hospital,Delhi,North West,Rohini,\N
4651,Family Hospital,B-859-70,"Avantika, Sec-01, Rohini",,Rohini,110085,27517874,28.701247,77.098469,0,<100 Bedded Hospital,Delhi,North West,Rohini,\N
4654,Maheshwari Hospital,F-1 U /41,Pitampura,Beside HDFC Bank,Pitampura,110034,27341460,28.698998,77.138417,0,<100 Bedded Hospital,Delhi,North West,Saraswati Vihar,\N
4656,Mittal Nursing Home,4302/5,"Jai Mata Market, Trinagar",,Trinagar,110035,27392526,28.678709,77.156967,0,<100 Bedded Hospital,Delhi,North West,Saraswati Vihar,\N
4668,Kuber Hospital,"12,","Chanderlok, Pitampura",,Pitampura,110034,27352931,28.69661,77.140516,0,<100 Bedded Hospital,Delhi,North West,Saraswati Vihar,\N
4675,Kumar Medical & Maternity Centre,AM-35,Shalimar Bagh,,Shalimar Bagh,110088,27479410,28.704107,77.160839,0,<100 Bedded Hospital,Delhi,North West,Saraswati Vihar,\N
4676,Malik Maternity Home and Surgical Centre,"Furniture Market, Krishna Mandir Chowk","Chitra Colony,","Near Krishna Mandir,",Najafgarh,110043,25324692,28.615416,76.98275,0,<100 Bedded Hospital,Delhi,South-West,Najafgarh,\N
4684,Fortis Hospital,AA-Block,Shalimar Bagh,,,110088,45302222,28.709165,77.1702,0,100-500 Bedded Hospital,Delhi,North West,Saraswati Vihar,\N
4685,Bharti Nursingh Home,A-132,Sector-7,,Palam Extension,110075,25075530,28.587373,77.070168,0,<100 Bedded Hospital,Delhi,South-West,Dwarka,\N
4686,Shakuntla Nursing Home Sagarpur,RZ-I-81,Sagarpur,,New Delhi,110046,25383171,28.608336,77.095472,0,<100 Bedded Hospital,Delhi,South-West,Dwarka,\N
4697,Singhal Hospital Palam Colony,C-40,Street No-10,,"Sadh Nagar, Palam Colony",110045,25055191,28.588226,77.886555,0,<100 Bedded Hospital,Delhi,South-West,Dwarka,\N
4784,RBI Dispensary,"6,",Sansad Marg,Opposite Aakashvani Bhawan,Reserve Bank of India,110001,011-23452577,28.6208346,77.211628,0,Dispensaries,Delhi,New Delhi,Chanakya Puri,\N
4882,Divya Prastha Hospital,Divya Prastha Hospital,"Main Road, Palam Colony",Opp.Bagh Wala School,Raj Nagar Part I,110045,2536 5960,28.585636,77.089601,0,<100 Bedded Hospital,Delhi,South-West,Dwarka,\N
4913,Kalawati Saran Children Hospital,"8, Bangla Sahib Rd",Block 85,DIZ Area,Gole Market,110001,011-23365792,28.6354952,77.2119759,0,100-500 Bedded Hospital,Delhi,New Delhi,Chanakya Puri,\N
4914,President Estate Clinic,CGHS Dispensary,No. 27,Near R M L Hospital,North Avenue Area,110004,011-23092781,28.61914076,77.19892703,0,Dispensaries,Delhi,New Delhi,Chanakya Puri,\N
5515,Shree Dhanvantri Hospital,RZ-10 A,Main Gopal Nagar,Near Khera Mod,Najafgarh,110043,66358310,28.61131,76.97499,0,<100 Bedded Hospital,Delhi,South-West,Najafgarh,\N
5517,Ayushman Hospital,Plot No. 2,Sector 12,,Dwarka,110075,42811114,28.59654,77.049207,0,<100 Bedded Hospital,Delhi,South-West,Dwarka,\N
5518,Rockland Hospital Gurudwara Road,HAF-B,Phase-1,Sector-12,Dwarka,110075,4822 2222,28.59633387,77.04526902,0,<100 Bedded Hospital,Delhi,South-West,Dwarka,\N
5519,Bensups Hospital,Bensups Hospital,Dwarka,Sector-12,Dwarka,110078,4555 0000,28.592451,77.044602,0,100-500 Bedded Hospital,Delhi,South-West,Dwarka,\N
5521,SPG Dispensary,SPG Complex,Sec-8,,Dwarka,110045,25090322,28.56585821,77.07104879,0,Dispensaries,Delhi,South-West,Dwarka,\N
5522,Air Force Station Palam,Air Force Station,Palam,,,110010,25687194,28.6975,77.159389,0,Dispensaries,Delhi,South-West,Kapashera,\N
5523,CRPF Composite Hospital,"Part-1, Sainik Enclave, 243-244",Main Surakhpur Road,Jharoda Kalan,,110072,25315363,28.63871496,76.95736615,0,100-500 Bedded Hospital,Delhi,South-West,Najafgarh,\N
5525,SC Chhawla,Village Post Office,Chhawla,Near Gyan Jyoti School,,110071,25317328,28.69277778,77.00638889,0,SubCentre,Delhi,South-West,Najafgarh,\N
5527,SC Dichhao,Village Post Office,Dichhao,,,110043,,28.7025,76.16694444,0,SubCentre,Delhi,South-West,Najafgarh,\N
5528,SC Mitraon,Village Post Office,Mitraon,,,110043,,28.67333333,77.04694444,0,SubCentre,Delhi,South-West,Najafgarh,\N
5530,SC Pochanpur,Nani ka Makan,Village Pochanpur,Near Dharna Kuan,,110077,,28.6675,77.17444444,0,SubCentre,Delhi,South-West,Dwarka,\N
5531,SC Harijan Basti,H.No. 49,Sec-7 Dwarka,Near Gas Agency,,110045,,28.64555556,77.13194444,0,SubCentre,Delhi,South-West,Dwarka,\N
5533,SC Dhansa,Village Post Office,Dhansa,,,110073,,28.58333333,76.87666667,0,SubCentre,Delhi,South-West,Najafgarh,\N
5534,SC Mundela Kala,Village Post Office,Mundela Kala,,,110073,,28.72611111,77.00694444,0,SubCentre,Delhi,South-West,Najafgarh,\N
5535,SC Ghumanhera,Village Post Office,Ghumanhera,,,110073,,28.6625,76.98388889,0,SubCentre,Delhi,South-West,Najafgarh,\N
5537,Sub Centre Bhartal,Village Post Office,Bhartal,Chaupal,,110061,,28.543711,77.04815,0,SubCentre,Delhi,South-West,Najafgarh,\N
5539,Sub Centre Issapur,MCD Dispensary Building,Issapur,Dispensary Building,,110061,,28.5756,76.8674,0,SubCentre,Delhi,South-West,Najafgarh,\N
5673,DGD District Court Dwarka,Near Metro Station,Sec-10 Dwarka,,,110075,,28.580093,77.059857,0,Dispensaries,Delhi,South-West,Dwarka,\N
5705,National Institute of TB and Respiratory Diseases,NITRD,"Sri Aurobindo Marg, Near Qutub minar",Near Qutub minar,Mehrauli,110030,"11,26,51,78,29,26,51,10,00,00,00,00,00,00,00,00,00,00,00,00,000",28.5289769,77.188655,244,>500 Bedded Hospital,Delhi,South,Mehrauli,\N
5707,"Sports Injury Centre, Safdarjung Hospital  (Part of SJH), New Delhi",Sport Injury complex,Ansari Nagar West,Safdarjung hospital,Safdarjung,110029,011-26181908,28.5675882,77.2027439,0,<100 Bedded Hospital,Delhi,New Delhi,Vasant Vihar,\N
5708,"Vallabhbhai Patel Chest Institute (VPCI), Delhi University,","Vallabhbhai Patel Chest Institute (VPCI), Delhi University,",North campus University of Delhi,"Vijay Nagar Marag, University of Delhi",Vijay Nagar Marag,110007,"27667441, 011-27402406",28.690637,77.20994,0,100-500 Bedded Hospital,Delhi,Central,Civil Lines,\N
6383,CGHS Malviya Nagar,"Senior Secondary School, Nil Block, Shri Ram Lane Malviya Nagar, New Delhi","Senior Secondary School, Nil Block, Shri Ram Lane Malviya Nagar, New Delhi","Senior Secondary School, Nil Block, Shri Ram Lane Malviya Nagar, New Delhi",13,110017,26671494,28.533937,77.212197,0,Dispensaries,Delhi,South,Hauz Khas,\N
6480,Vardaan Hospital,"- Near Post Office, 100, Malviya Nagar, Khirki Extension, Malviya Nagar, New Delhi, Delhi 110017","- Near Post Office, 100, Malviya Nagar, Khirki Extension, Malviya Nagar, New Delhi, Delhi 110017","- Near Post Office, 100, Malviya Nagar, Khirki Extension, Malviya Nagar, New Delhi, Delhi 110017",,110017,26689911,28.5368,77.21585,0,<100 Bedded Hospital,Delhi,South,Hauz Khas,\N
6481,Vinaya Bhawan Mty Centre,"DDA Flats, 19/564, JJ Colony, Madangir, New Delhi, Delhi 110044","DDA Flats, 19/564, JJ Colony, Madangir, New Delhi, Delhi 110044","DDA Flats, 19/564, JJ Colony, Madangir, New Delhi, Delhi 110044",18,110044,29963260,28.51992,77.230456,0,<100 Bedded Hospital,Delhi,South,Hauz Khas,\N
6482,Max Health Care Hospital,"1,2, Press Enclave Road, Mandir Marg, Saket, New Delhi, Delhi 110017","1,2, Press Enclave Road, Mandir Marg, Saket, New Delhi, Delhi 110017","1,2, Press Enclave Road, Mandir Marg, Saket, New Delhi, Delhi 110017",16,110017,26515050,28.527434,77.211563,0,100-500 Bedded Hospital,Delhi,South,Saket,\N
6484,Rockland Hospital,"B-33-34, Qutab Institutional Area, Katwaria Sarai, New Delhi, Delhi 110016","B-33-34, Qutab Institutional Area, Katwaria Sarai, New Delhi, Delhi 110016","B-33-34, Qutab Institutional Area, Katwaria Sarai, New Delhi, Delhi 110016",42,110016,47667100,28.5596,77.1814,0,100-500 Bedded Hospital,Delhi,South,Mehrauli,\N
6485,Sunil Hospital and Nursing Home,"15/199, Geetanjali Marg, Block E, Malviya Nagar, New Delhi, Delhi 110017","15/199, Geetanjali Marg, Block E, Malviya Nagar, New Delhi, Delhi 110017","15/199, Geetanjali Marg, Block E, Malviya Nagar, New Delhi, Delhi 110017",13,110017,1126680247,28.53419,77.2146,0,<100 Bedded Hospital,Delhi,South,Hauz Khas,\N
6486,Vibhu Nursing Home,"11/137,138, Malviya Nagar, New Delhi, Delhi 110017","11/137,138, Malviya Nagar, New Delhi, Delhi 110017","11/137,138, Malviya Nagar, New Delhi, Delhi 110017",13,110017,2668 3681,28.534898,77.20856,0,<100 Bedded Hospital,Delhi,South,Hauz Khas,\N
6487,Aman Medical Centre,"1061 /7, Dargah Street, Mehrauli, New Delhi, Delhi 110030","1061 /7, Dargah Street, Mehrauli, New Delhi, Delhi 110030","1061 /7, Dargah Street, Mehrauli, New Delhi, Delhi 110030",26,110030,011 2664 5113,28.514283,77.1795,0,<100 Bedded Hospital,Delhi,South,Mehrauli,\N
6488,"Max Smart Super Specialty Hospital, Saket???ÿ","Saket Institutional Area, Saket, New Delhi, Delhi 110017","Saket Institutional Area, Saket, New Delhi, Delhi 110017","Saket Institutional Area, Saket, New Delhi, Delhi 110017",16,110017,011 4069 9999,28.527537,77.212492,0,100-500 Bedded Hospital,Delhi,South,Saket,\N
6489,Bhagwati Hospital,"1/113, Desu Road, Near Dreamland School, Mehrauli, New Delhi, Delhi 110030","1/113, Desu Road, Near Dreamland School, Mehrauli, New Delhi, Delhi 110030","1/113, Desu Road, Near Dreamland School, Mehrauli, New Delhi, Delhi 110030",26,110030,011 2664 3304,28.52417,77.1786,0,<100 Bedded Hospital,Delhi,South,Mehrauli,\N
6490,Healing Touch Hospital,"???ÿPanchsheel Enclave, No. 7/5,, Sarva Priya Vihar, New Delhi, Delhi 110016","???ÿPanchsheel Enclave, No. 7/5,, Sarva Priya Vihar, New Delhi, Delhi 110016","???ÿPanchsheel Enclave, No. 7/5,, Sarva Priya Vihar, New Delhi, Delhi 110016",66,110016,011 4727 2800,28.5427967,77.207279,0,<100 Bedded Hospital,Delhi,South,Hauz Khas,\N
6492,Leekha Nursing Home,"Likhas???ÿNursing Home,D-62,???ÿHauz Khas, Delhi - 110016","Likhas???ÿNursing Home,D-62,???ÿHauz Khas, Delhi - 110016","Likhas???ÿNursing Home,D-62,???ÿHauz Khas, Delhi - 110016",8,110016,2659203,28.549449,77.200137,0,<100 Bedded Hospital,Delhi,South,Hauz Khas,\N
6493,Satyam Medical Centre,"&#34;Satyam Medical Centre, 115/1, Katwaria Sarai, New Delhi ?›ƒ?ªƒ?? 110016&#34;","&#34;Satyam Medical Centre, 115/1, Katwaria Sarai, New Delhi ?›ƒ?ªƒ?? 110016&#34;","&#34;Satyam Medical Centre, 115/1, Katwaria Sarai, New Delhi ?›ƒ?ªƒ?? 110016&#34;",42,110016,1141688372,28.542231,77.188218,0,<100 Bedded Hospital,Delhi,South,Mehrauli,\N
6494,Sukhmani Hospital,"B-7 Ext./126A, Safdarjung Enclave, Arjun Nagar, New Delhi, Delhi 110029","B-7 Ext./126A, Safdarjung Enclave, Arjun Nagar, New Delhi, Delhi 110029","B-7 Ext./126A, Safdarjung Enclave, Arjun Nagar, New Delhi, Delhi 110029",212,110029,011 2619 4000,28.559687,77.200452,0,<100 Bedded Hospital,Delhi,South,Hauz Khas,\N
6495,Swan Neelu Angels Nursing Home,"J-293, Saket, New Delhi, Delhi 110017","J-293, Saket, New Delhi, Delhi 110017","J-293, Saket, New Delhi, Delhi 110017",16,110017,011 4319 1300,28.52213,77.215166,0,<100 Bedded Hospital,Delhi,South,Saket,\N
7184,Vaidya Babu Ram Verma  charitable Society,"329, gali No 9 mandoli Ext.",Opposite Nandnagri Bus Depot & ITI College,,,110093,,28.691022,77.299951,0,<100 Bedded Hospital,Delhi,Shahdara,Seema Puri,\N
7185,Shreshtha Clinic & maternity Centre,"1449/34, 30 feet road,","durga puri, near durgapuri chowk",,,110093,22110490,28.688341,77.292761,0,<100 Bedded Hospital,Delhi,Shahdara,Shahdara,\N
7186,best care hospital,"118/A,",Dilshad Colony,,,110095,22354132,28.6846,77.3279,0,<100 Bedded Hospital,Delhi,Shahdara,Seema Puri,\N
7189,KD Medicare Centre,B-120,Hardev puri,100 feet road,Near GTB Hospital,110093,,28.6913,77.2982,0,<100 Bedded Hospital,Delhi,Shahdara,Seema Puri,\N
7192,Sai Charitable Dispensary & Nursing Home,"No. 86A, jagat puri","100 feet road, nathu colony chowk",,,110093,22584220,28.691225,77.300473,0,<100 Bedded Hospital,Delhi,Shahdara,Shahdara,\N
7195,Sona Mty and Nursing Home,"4/1925, Rama Block, Gali Number 8,","Bhola Nath Nagar,",Near M.C. Primary School,,110032,2230 1366,28.665698,77.290634,0,<100 Bedded Hospital,Delhi,Shahdara,Vivek Vihar,\N
7199,Delhi Common Wealth Women Association,"medical center , Zamrudpur",Kailash colony extention,,EAST OF KAILASH,110048,011-29237878,28.635308,77.2249,0,<100 Bedded Hospital,Delhi,South East,Kalkaji,\N
7200,Phoenix Hopsital,E60-62,"GK I,",,GREATER KAILASH II,110048,011 4686 3800,28.54997,77.244178,0,<100 Bedded Hospital,Delhi,South East,Kalkaji,\N
7202,Banarsidas Chandiwala Insitute of Medical Sciences,"Chandiwala Estate,,",Maa Anandmai Marg,kalkaji,KALKAJI,110019,011 40116138,28.5440408,77.267,0,<100 Bedded Hospital,Delhi,South East,Kalkaji,\N
7205,Jeevan Jyoti Hospital,T-43,"Main Road , Tekhand , okhla phase I",,OKHLA INDUSTRIAL AREA PHASE I,110020,011-26811400,28.522336,77.284897,0,<100 Bedded Hospital,Delhi,South East,Sarita Vihar,\N
7209,Manav Medicare Centre,"E-11,",South Extension Part-1,,DEFENCE COLONY,110049,011 2469 0655,28.5709,77.21877,0,<100 Bedded Hospital,Delhi,South East,Defence Colony,\N
7211,Manglam Medical Centre,"E-131, Dilshad Garden",Dilshad Garden,,,110095,22575486,28.678643,77.317547,0,<100 Bedded Hospital,Delhi,Shahdara,Seema Puri,\N
7215,Talwar Medical Centre,m-139,GK-II,,GREATER KAILASH II,110048,1143794200,28.53631,77.243967,0,<100 Bedded Hospital,Delhi,South East,Defence Colony,\N
7216,Shanti Mukund Hospital,"2, institutional Area,","karkardooma, Vikas Marg Ext",,,110092,47276600,28.645706,77.301692,0,<100 Bedded Hospital,Delhi,Shahdara,Vivek Vihar,\N
7217,Netrayatan Hospital,"Greater Kailash II,","Greater Kailash,",,GREATER KAILASH II,110048,+91 - 11 - 2921 2828,28.5478,77.2376,0,<100 Bedded Hospital,Delhi,South East,Kalkaji,\N
7218,Suraksha Nursing Home,"E-22, Seemapuri Road",Dilshad Colony,,,110095,22353535,28.686831,77.324601,0,<100 Bedded Hospital,Delhi,Shahdara,Seema Puri,\N
7221,Sama Nursing Home,"8,",Siri Fort Rd,,,110049,011-43111888,28.544358,77.2643,0,<100 Bedded Hospital,Delhi,South East,Defence Colony,\N
7225,Hakeem Abdul Hameed Centenary Hospital,"Guru Ravidas Marg,",Hamdard Nagar,,SARITA VIHAR,110062,,28.514,77.2521897,0,<100 Bedded Hospital,Delhi,South East,Kalkaji,\N
7226,Parivar Sewa Sansthan,"O-22, Ground Floor, ,",Near 17th Square,"Lajpat Nagar 2,",DEFENCE COLONY,110024,,28.5776,77.233009,0,<100 Bedded Hospital,Delhi,South East,Defence Colony,\N
7227,Vallabh Hospital,"1402E/13,Near Govindpuri police station",Govindpuri,,GOVINDPURI,110019,,28.544358,77.2643,0,<100 Bedded Hospital,Delhi,South East,Defence Colony,\N
7229,Indraprastha Apollo Hospital,"Sarita Vihar,",Delhi Mathura Road,,SARITA VIHAR,110046,,28.54178,77.2832,0,>500 Bedded Hospital,Delhi,South East,Sarita Vihar,\N
7232,Jeewan Hospital Nursing Home,"Jeewan Nagar,",Near Ashram,,,110014,011-26349821,28.572,77.26278,0,100-500 Bedded Hospital,Delhi,South East,Defence Colony,\N
7234,Mool Chand Khairati Ram Hospital,"Lajpat Nagar III,","Near Moolchand Metro Station,",,DEFENCE COLONY,110024,,28.5656,77.24338,0,100-500 Bedded Hospital,Delhi,South East,Defence Colony,\N
7235,Fortis,"S - 549,,",Greater Kailash - II,,KALKAJI,110048,,28.52883,77.24402,0,<100 Bedded Hospital,Delhi,South East,Kalkaji,\N
7497,Deepak Nursing Home,Deepak Nursing Home,"H-7, Parwana Road",Jagatpuri,Preet Vihar (441),110051,,28.62002778,77.30388889,0,<100 Bedded Hospital,Delhi,East,Preet Vihar,\N
7498,Dharamshila Hospital,Dharamshila Hospital,Vasundhara Enclave,,,110096,011-22778788,28.60227778,77.314,0,100-500 Bedded Hospital,Delhi,East,Mayur Vihar,\N
7499,Jeevan Anmol Hospital,Jeevan Anmol Hospital,Mayur Vihar Phase 1,Opp. Pratap Nagar,,110091,,28.60605556,77.29533333,0,<100 Bedded Hospital,Delhi,East,Mayur Vihar,\N
7500,Kukreja Hospital,Kukreja Hospital,ACHARYA NIKETAN,Mayur Vihar Phase 1,,110091,,28.60955556,77.29505556,0,<100 Bedded Hospital,Delhi,East,Mayur Vihar,\N
7502,Mahesh Hospital,Mahesh Hospital,"D-437, WEST VINOD NAGAR",I.P. EXTENTION,,110092,,28.626444,77.302352,0,<100 Bedded Hospital,Delhi,East,Preet Vihar,\N
7509,Malhotra Nursing Home,Malhotra Nursing Home,"209-A, Pocket-B",MAYUR VIHAR PHASE -2,MAYUR VIHAR,110091,,28.62002778,77.30388889,0,<100 Bedded Hospital,Delhi,East,Mayur Vihar,\N
7510,Malik Nursing Home,Malik Nursing Home,B 1297-98 GHAROLI DAIRY COLONY,MAYUR VIHAR PHASE -III,,110096,,28.60941667,77.33458333,0,<100 Bedded Hospital,Delhi,East,Mayur Vihar,\N
7518,Mayur Medicare Center,Mayur Medicare Center,"81,Partap Nagar",Mayur Vihar Phase 1,,110091,,28.60616667,77.29344444,0,<100 Bedded Hospital,Delhi,East,Mayur Vihar,\N
7519,Navjeevan Nursing Home,Navjeevan Nursing Home,"B-4 & 15, SHIVPURI EXTN.",Chander Nagar,,110051,011-22547684,28.65327778,77.27811111,0,<100 Bedded Hospital,Delhi,East,Gandhi Nagar,\N
7520,Raj Medical and Mat. Center,Raj Medical and Mat. Center,"MAIN MARKET, KONDLI,",MAYUR VIHAR PHASE -III,,110096,,28.61377778,77.32358333,0,<100 Bedded Hospital,Delhi,East,Mayur Vihar,\N
7522,RAM LAL KUNDAN LAL ORTH HOS,RAM LAL KUNDAN LAL ORTH HOS,"Bunglow Plot no. 8, Pandav Nagar",Patparganj,MAYUR VIHAR,110092,,28.61811111,77.28691667,0,<100 Bedded Hospital,Delhi,East,Mayur Vihar,\N
7523,Sankhwar Hospital,Sankhwar Hospital,"D-134, KONDALI",MAYUR VIHAR PHASE -III,,110096,,28.61513889,77.32369444,0,<100 Bedded Hospital,Delhi,East,Mayur Vihar,\N
7524,Shakuntala mat and surg  Center,Shakuntala mat and surg  Center,17 SHIV PURI,Geeta Colony,,110051,,28.65125,77.27822222,0,<100 Bedded Hospital,Delhi,East,Gandhi Nagar,\N
7525,Walia Nursing Home,Walia Nursing Home,C 60 LAXMI NAGAR SHAKAR PUR,Laxmi Nagar,,110092,011-22542294,28.63272222,77.28052778,0,<100 Bedded Hospital,Delhi,East,Preet Vihar,\N
7526,Max Balaji Super Speciality Hospital,Max Balaji Super Speciality Hospital,"108-A, I.P EXTN",Patparganj,,110092,1143033333,28.63319444,77.30966667,0,100-500 Bedded Hospital,Delhi,East,Preet Vihar,\N
9749,VMMC & SAFDARJANG HOSPITAL,"Ring Road, Safdarjung West,","Safdarjung Campus,","Opposite AIIMS Hospital, New Delhi","Ansari Nagar East, New Delhi",110029,1126165060,28.5677,77.2069,0,Civil Hospital/General Hospital,Delhi,Central,\N,\N
9759,Acharya Shree Bhikshu Hospital,"Moti Nagar,","West Delhi,",.,New Delhi,110015,1125423011,28.6618,77.1404,0,Primary Health Centre,Delhi,West,Punjabi Bagh,\N
9760,Aruna Asaf Ali Hospital,"5, Rajpur Road,","Civil Lines,",.,"New Delhi,",110054,1123965532,28.6701,77.2178,0,Urban Health Centre,Delhi,North,Alipur,\N
9761,Attar Sain Jain Hospital,.,"Lawrence Road,","Industrial Area,","Delhi,",110003,1127188342,28.6817,77.1497,0,Civil Hospital/General Hospital,Delhi,New Delhi,Delhi Cantonment,\N
9762,Dr. Baba Saheb Ambedkar Hospital,"Sector 6,","Rohini,","Near Rohini West Metro Station,","Delhi,",110008,1127055585,28.7147,77.1134,0,Urban Health Centre,Delhi,West,Punjabi Bagh,\N
9764,Babu Jagjivan Ram Memorial Hospital,"E Block,","Bhalswa Jahangirpuri,",.,"North West, Delhi",110033,1127634636,28.6062,77.2093,0,District Hospital,Delhi,North West,Rohini,\N
9812,Bhagwan Mahavir Hospital,"H-4,5,","Near Keshav Maha Vidhyalaya,","Apeejay School,","Pitam Pura, Delhi",110034,1127033947,28.6884,77.118,0,Primary Health Centre,Delhi,New Delhi,\N,\N
9813,"Deen Dayal Upadhyay Hospital, Hari Nagar","Hari Nagar,","Clock Tower,",,"New Delhi,",110064,1125494402,28.6275,77.113,0,Civil Hospital/General Hospital,Delhi,New Delhi,\N,\N
9814,Deep Chand Bandhu Government Hospital,"B 492, Bunker Colony,","Ashok Vihar IV,",,"Ashok Vihar, Delhi,",110052,1127305950,28.6818,77.1782,0,Primary Health Centre,Delhi,New Delhi,\N,\N
9815,"Doctor Hedgewar Aarogya Sansthan, Karkardooma","Karkardooma , Delhi",Karkardooma,"Near Karkardooma Court, Delhi",,110032,1122382686,28.6553,77.2933,0,Primary Health Centre,Delhi,New Delhi,\N,\N
9816,Dr. N.C. Joshi Memorial Hospital,"Joshi Rd,","Block 63, Karol Bagh,",,"New Delhi,",110005,1123622498,28.6523,77.1992,0,Primary Health Centre,Delhi,New Delhi,\N,\N
9817,G.B. PANT HOSPITAL,"# 1,","Jawaharlal Nehru Marg, New Delhi,","Delhi Gate, New Delhi",,110002,1123233001,28.6388,77.2348,0,Primary Health Centre,Delhi,New Delhi,\N,\N
9818,Guru Gobind Singh (GGS) Government Hospital,"Pocket A, Raghubir Nagar,","Tagore Garden Extension, Delhi,",,,110027,1125988532,28.6531,77.1072,0,Primary Health Centre,Delhi,New Delhi,\N,\N
9819,Guru Nanak Eye Centre,"Ramlila Ground,","Chandni Chowk, New Delhi",,,110002,1123234622,28.6404,77.2314,0,Primary Health Centre,Delhi,New Delhi,\N,\N
9820,Guru Teg Bahadur (GTB) Hospital,"Dilshad Garden, Delhi,",New Delhi,,,110095,1122586262,28.6839,77.3099,0,Primary Health Centre,Delhi,New Delhi,\N,\N
9821,Health Centre Cum Maternity Hospital,"Kanti Nagar, Delhi",Kanti Nagar,,,110051,1122097399,28.667,77.2772,0,Primary Health Centre,Delhi,New Delhi,\N,\N
9822,Jag Pravesh Chandra Hospital,"Panduk Shila Marg,","Shastri Park, New Delhi",,,110053,1122184453,28.6762,77.2629,0,Primary Health Centre,Delhi,New Delhi,\N,\N
9823,Lal Bahadur Shastri Hospital,"Near Kalyanvas Colony,","Mayur Vihar, Phase -II, Khichripur, Delhi,",,,110091,1122774145,28.6178,77.3115,0,Primary Health Centre,Delhi,New Delhi,\N,\N
9824,Lok Nayak Hospital,"# 2, Near Delhi Gate,","Jawaharlal Nehru Marg, New Delhi",,,110002,1123230733,28.6388,77.2383,0,Primary Health Centre,Delhi,New Delhi,\N,\N
9825,Maharishi Valmiki Hospital,"Bhavana Industrial Area,","Pooth Khurd, Delhi,",,,110039,1127761522,28.7758,77.0484,0,Primary Health Centre,Delhi,New Delhi,\N,\N
9826,Pt. Madan Mohan Malviya Hospital,"Malviya Nagar,","New Delhi,",,,110017,1126689999,28.5356,77.2139,0,Primary Health Centre,Delhi,New Delhi,\N,\N
9827,Rao Tula Ram Memorial Hospital,"Jaffarpur Kalan,","South West Delhi,",,,110073,1125318555,28.5947,76.9141,0,Primary Health Centre,Delhi,New Delhi,\N,\N
9828,Sanjay Gandhi Memorial Hospital,"Block S, Mangolpuri, Delhi,","Mangolpuri,",,,110083,1127921117,28.6927,77.0817,0,Primary Health Centre,Delhi,New Delhi,\N,\N
9829,Sardar Vallabh Bhai Patel Hospital,"EAST PATEL NAGAR, New Delhi,",EAST PATEL NAGAR,,,110008,1125885944,28.647,77.169,0,Primary Health Centre,Delhi,New Delhi,\N,\N
9830,Satyawadi Raja Harish Chander Hospital,"Narela Main Road,","Sector A1, Narela, Delhi,",,,110040,1127787304,28.8409,77.1031,0,Primary Health Centre,Delhi,New Delhi,\N,\N
9831,Shri Dada Dev Matri Avum Shishu Chikitsalaya,"Dabri, New Delhi",Dabri,,,110045,1125395536,28.5998,77.0913,0,Primary Health Centre,Delhi,New Delhi,\N,\N
9832,Sushruta Trauma Centre,"Mahatma Gandhi RoadMahatma Gandhi Road, Railway Colony,","Civil Lines, North Delhi,",,,110054,1123983011,28.6802,77.2276,0,Primary Health Centre,Delhi,New Delhi,\N,\N
9833,Delhi State Cancer Institute,"# 8, GTB Hospital Complex,","Dilshad Garden, New Delhi,",,,110095,1122135200,28.6863,77.3091,0,Primary Health Centre,Delhi,New Delhi,\N,\N
9834,Institute of Human Behaviour & Allied Sciences,"G.T.B, Hospital Road,","Dilshad Garden, Delhi,",,,110095,1122114021,28.681,77.3052,0,Primary Health Centre,Delhi,New Delhi,\N,\N
9835,Institute of Liver and Biliary Sciences (IILBS),"D-1, Vasant Kunj,","New Delhi,",,,110070,1126706700,28.5063,77.1651,0,Primary Health Centre,Delhi,New Delhi,\N,\N
9837,Maulana Azad Institute of Dental Sciences,"Bahadur Shah Zafar Marg,","New Delhi,",,,110002,1123239279,28.6372,77.237,0,Primary Health Centre,Delhi,New Delhi,\N,\N
9838,Chacha Nehru Bal Chikitsalaya,"Raja Ram Kohli Marg,","Geeta Colony, Delhi,",,,110031,1121210215,28.6539,77.2712,0,Primary Health Centre,Delhi,New Delhi,\N,\N
9839,JANAKPURI SUPER SPECIALITY HOSPITAL,"C ?›ƒ?ªƒ?? 2B, JANAK PURI,",NEW DELHI,,,110058,1125508550,28.6207,77.0898,0,Primary Health Centre,Delhi,New Delhi,\N,\N
9840,Rajiv Gandhi Super Speciality Hospital,"Tahirpur,",New Delhi,,,110093,1165252480,28.6892,77.3166,0,Primary Health Centre,Delhi,New Delhi,\N,\N
9938,Sewa Kutir Hospital,"Banda Bahadur Rd,","Hakikat Nagar, GTB Nager, Delhi",Near Nulife Hospital New Delhi,,110009,1127653028,28.7041,77.1025,0,Primary Health Centre,Delhi,South-West,\N,\N
9939,Lady Hardinge Medical College,"C-604, Shaheed Bhagat Singh Road, Diz Area,","Connaught Place, New Delhi",,,110001,1123363728,28.6342,77.2126,0,Primary Health Centre,Delhi,Central,\N,\N
9940,Kalawati Saran Children&#39;s Hospital,"C- 604, Connaught Circus, DIZ Area,","Connaught Place, New Delhi",,,110001,1123344160,28.6361,77.2105,0,Primary Health Centre,Delhi,New Delhi,\N,\N
10200,Central Tihar Jail Hospital,Prisons Head Quarter,Hari Nagar,Near Lajwanti Garden Chowk,Hari Nagar,110064,1128520202,28.616517,77.101052,0,District Hospital,Delhi,West,Rajouri Garden,\N
10201,Northern Regional Centre of AYJNIHH (New Delhi),"Kasturba Niketan,","Kasturba Niketan,",,Lajpat Nagar,110024,011-29817919,77.245185,28.571167,0,Others,Delhi,South East,\N,\N
10202,Northern Regional Centre of AYJNIHH (New Delhi),"Kasturba Niketan,","Kasturba Niketan,",,Lajpat Nagar,110024,011-29817919,28.571167,77.245185,0,Others,Delhi,South East,Defence Colony,\N
10349,Area-C,,,,,,,0,0,0,SubCentre,Delhi,East,Mayur Vihar,\N
10560,Area-C,,,,,,,0,0,0,SubCentre,Delhi,East,Preet Vihar,\N
10653,Area-5,,,,,,,0,0,0,SubCentre,Delhi,North West,Rohini,\N
10682,MCW Jawalapuri,MCW Centre,A Block,"4 No, Jawala Puri",Jwalapuri,110087,25258874,28.6804,77.0775,0,M&CW Center,Delhi,West,Punjabi Bagh,\N
10695,Area-4,,,,,,,0,0,0,SubCentre,Delhi,South-West,Kapashera,\N
10707,Area-C,,,,,,,0,0,0,SubCentre,Delhi,Shahdara,Shahdara,\N
10756,Area-4,,,,,,,0,0,0,SubCentre,Delhi,East,Mayur Vihar,\N
10786,Area-C,,,,,,,0,0,0,SubCentre,Delhi,South East,Kalkaji,\N
10939,Area-C,,,,,,,0,0,0,SubCentre,Delhi,New Delhi,Delhi Cantonment,\N
10955,Girdhari Lal Maternity Hospital,"Jawaharlal Nehru Marg, New Delhi,",Jawaharlal Nehru Marg,"Near New Delhi Railway Station, Jawaharlal Nehru Marg",Ajmeri gate,110002,011 2323 1649,28.64339934,77.22454694,0,<100 Bedded Hospital,Delhi,Central,Kotwali,\N
10960,DGD Sec 19 Dwarka,Delhi Govt. Dispensary,"Sec-19, New Delhi",Near Amrahi village,Dwarka,110075,28041571,28.577671,77.048361,0,Dispensaries,Delhi,South-West,Dwarka,\N
11184,Area-C,,,,,,,0,0,0,SubCentre,Delhi,West,Patel Nagar,\N
11304,DGD Mayapuri,PWD Building,Jhuggi Mayapuri Phase-2,Behind Park,Mayapuri,110064,011-28116626,28.623521,77.1245942,0,Dispensaries,Delhi,New Delhi,Delhi Cantonment,\N
11308,Area-5,,,,,,,0,0,0,SubCentre,Delhi,North,Alipur,\N
11386,Area-2,,,,,,,0,0,0,SubCentre,Delhi,New Delhi,Chanakya Puri,\N
11523,MCW Katra Neel,MCW Center,"H. No. 722, gali-Tatia",Near Saraswati school,"Katra Neel, Near Old Delhi Railway station, Delhi-6",110006,23987871,28.65780342,77.22613401,0,M&CW Center,Delhi,Central,Kotwali,\N
11664,Area-C,,,,,,,0,0,0,SubCentre,Delhi,West,Patel Nagar,\N
11857,Area-4,,,,,,,0,0,0,SubCentre,Delhi,South East,Sarita Vihar,\N
12058,Area- C,,,,,,,0,0,0,SubCentre,Delhi,North,Narela,\N
12137,Area-3,,,,,,,0,0,0,SubCentre,Delhi,North,Alipur,\N
12201,Area-16,,,,,,,0,0,0,SubCentre,Delhi,North,Narela,\N
12223,Area-5,,,,,,,0,0,0,SubCentre,Delhi,New Delhi,Vasant Vihar,\N
12268,Area-14,,,,,,,0,0,0,SubCentre,Delhi,North West,Kanjhawla,\N
12314,DGD Bersarai,"DGD Ber Sarai Opp  Main Gate, JNU (Old Complex),New-Delhi.110016","DGD Ber Sarai Opp  Main Gate, JNU (Old Complex),New-Delhi.110016","DGD Ber Sarai Opp  Main Gate, JNU (Old Complex),New-Delhi.110016",26,110016,,28.548827,77.182767,0,Dispensaries,Delhi,South,Mehrauli,\N
12399,Area-4,,,,,,,0,0,0,SubCentre,Delhi,West,Punjabi Bagh,\N
12438,Area-6,,,,,,,0,0,0,SubCentre,Delhi,West,Punjabi Bagh,\N
12443,Area-19,,,,,,,0,0,0,SubCentre,Delhi,North West,Kanjhawla,\N
12488,SPUHC Jheel,,,above banke bihari mandir scooter market Jheel,Jheel,110031,,28.65934,77.274458,0,Dispensaries,Delhi,Shahdara,Shahdara,\N
12535,Area-7,,,,,,,0,0,0,SubCentre,Delhi,South East,Defence Colony,\N
12625,Area-4,,,,,,,0,0,0,SubCentre,Delhi,South East,Kalkaji,\N
12691,MCW Raghubir Nagar,B-2,25 yard,Near Blind School,Raghubir Nagar,110027,25107323,28.657,77.109,0,M&CW Center,Delhi,West,Rajouri Garden,\N
12692,Area-1,,,,,,,0,0,0,SubCentre,Delhi,West,Rajouri Garden,\N
12820,MCW Gautam Puri,"Gautam Puri-I ,",Molar Band,opp. tuglakabad metro station,,110044,011-29944065,28.678717,77.264222,0,M&CW Center,Delhi,South East,Sarita Vihar,\N
12821,MH Sri Niwas Puri,C-84,Sri Niwas Puri,,Sri Niwas Puri,110065,,28.56540633,77.25386687,0,Maternity Home,Delhi,South East,Defence Colony,\N
12855,Area-5,,,,,,,0,0,0,SubCentre,Delhi,South-West,Dwarka,\N
12895,Area-4,,,,,,,0,0,0,SubCentre,Delhi,South,Hauz Khas,\N
13048,DGD Nangal Raya,D- Block Janakpuri,Nangal Raya Market,Near Post Office,Nangal Raya,110046,011-28523493,28.6069057,77.10914537,0,Dispensaries,Delhi,New Delhi,Delhi Cantonment,\N
13141,Area-3 (070602203),,,,,,,0,0,0,SubCentre,Delhi,Central,Karol Bagh,\N
13208,Area- C,,,,,,,0,0,0,SubCentre,Delhi,North,Alipur,\N
13257,Area-2,,,,,,,0,0,0,SubCentre,Delhi,South-West,Dwarka,\N
13274,Area-7,,,,,,,0,0,0,SubCentre,Delhi,South East,Sarita Vihar,\N
13301,Area-5,,,,,,,0,0,0,SubCentre,Delhi,North,Alipur,\N
13303,Area-7,,,,,,,0,0,0,SubCentre,Delhi,North-East,Karawal Nagar,\N
13310,Area-3,,,,,,,0,0,0,SubCentre,Delhi,South East,Kalkaji,\N
13353,Area-5 (070600605),,,,,,,0,0,0,SubCentre,Delhi,Central,Karol Bagh,\N
13392,Area-11,,,,,,,0,0,0,SubCentre,Delhi,West,Punjabi Bagh,\N
13458,Area-6,,,,,,,0,0,0,SubCentre,Delhi,West,Patel Nagar,\N
13528,Area-C,,,,,,,0,0,0,SubCentre,Delhi,North-East,Karawal Nagar,\N
13580,Area-C,,,,,,,0,0,0,SubCentre,Delhi,West,Patel Nagar,\N
13593,Area-C,,,,,,,0,0,0,SubCentre,Delhi,New Delhi,Delhi Cantonment,\N
13666,Area-4,,,,,,,0,0,0,SubCentre,Delhi,South,Hauz Khas,\N
13728,Area-3,,,,,,,0,0,0,SubCentre,Delhi,North-East,Karawal Nagar,\N
13768,Area-3,,,,,,,0,0,0,SubCentre,Delhi,North West,Kanjhawla,\N
13791,Area-3 (070600104),,,,,,,0,0,0,SubCentre,Delhi,Central,Kotwali,\N
13906,Area-2,,,,,,,0,0,0,SubCentre,Delhi,South,Mehrauli,\N
14025,Area-3,,,,,,,0,0,0,SubCentre,Delhi,North-East,Seelam Pur,\N
14032,Area-2,,,,,,,0,0,0,SubCentre,Delhi,North,Narela,\N
14063,Area-1 (070607801),,,,,,,0,0,0,SubCentre,Delhi,Central,Civil Lines,\N
14069,Area-2,,,,,,,0,0,0,SubCentre,Delhi,Shahdara,Vivek Vihar,\N
14088,Area-4,,,,,,,0,0,0,SubCentre,Delhi,Shahdara,Seema Puri,\N
14100,Area-C,,,,,,,0,0,0,SubCentre,Delhi,South-West,Kapashera,\N
14111,Area-13,,,,,,,0,0,0,SubCentre,Delhi,North West,Kanjhawla,\N
14348,Area-2,,,,,,,0,0,0,SubCentre,Delhi,North West,Rohini,\N
14362,Area-1,,,,,,,0,0,0,SubCentre,Delhi,West,Punjabi Bagh,\N
14388,Area-5,,,,,,,0,0,0,SubCentre,Delhi,North West,Kanjhawla,\N
14394,Area-11,,,,,,,0,0,0,SubCentre,Delhi,North West,Kanjhawla,\N
14417,Area-5,,,,,,,0,0,0,SubCentre,Delhi,North,Model Town,\N
14439,Area-5,,,,,,,0,0,0,SubCentre,Delhi,South East,Sarita Vihar,\N
14475,Area-3,,,,,,,0,0,0,SubCentre,Delhi,North,Model Town,\N
14543,Area-4,,,,,,,0,0,0,SubCentre,Delhi,West,Patel Nagar,\N
14682,Acharya Shree Bhikshu Hospital,Acharyashri Bhikshu Govt. Hosp,Moti Nagar,Near Tanga Stand,Moti Nagar,110015,1125423011,28.64,77.17,0,100-500 Bedded Hospital,Delhi,West,Patel Nagar,\N
14696,Area-3 (070601603),,,,,,,0,0,0,SubCentre,Delhi,Central,Karol Bagh,\N
14840,Area-4,,,,,,,0,0,0,SubCentre,Delhi,South,Saket,\N
14864,Area-5 (070600305),,,,,,,0,0,0,SubCentre,Delhi,Central,Kotwali,\N
14950,MCW Azadpur,"E-251,","MCD Colony,Azadpur,",,"MCD Colony,Azadpur,",110033,27112024,28.709327,77.177998,0,M&CW Center,Delhi,North,Model Town,\N
15034,Area-6,,,,,,,0,0,0,SubCentre,Delhi,South East,Defence Colony,\N
15054,Area-2,,,,,,,0,0,0,SubCentre,Delhi,West,Patel Nagar,\N
15073,Area-C,,,,,,,0,0,0,SubCentre,Delhi,Shahdara,Shahdara,\N
15183,Area-2,,,,,,,0,0,0,SubCentre,Delhi,South-West,Najafgarh,\N
15191,Area - C,,,,,,,0,0,0,SubCentre,Delhi,Central,Kotwali,\N
15215,Area-2,,,,,,,0,0,0,SubCentre,Delhi,South-West,Dwarka,\N
15251,Area-2 (070602801),,,,,,,0,0,0,SubCentre,Delhi,Central,Karol Bagh,\N
15283,Area-C,,,,,,,0,0,0,SubCentre,Delhi,North-East,Karawal Nagar,\N
15286,Area- C,,,,,,,0,0,0,SubCentre,Delhi,North West,Rohini,\N
15298,Area-C,,,,,,,0,0,0,SubCentre,Delhi,East,Mayur Vihar,\N
15331,Area-4,,,,,,,0,0,0,SubCentre,Delhi,East,Preet Vihar,\N
15504,Area-2 (070604602),,,,,,,0,0,0,SubCentre,Delhi,Central,Civil Lines,\N
15557,DGD Sarai Kale Khan,"69A-76A, Block 19,","DDA flats, Slum Tenament, Sarai Kale Khan",,SARAI KALE KHAN,,011-24357045,28.58811244,77.25585301,0,Dispensaries,Delhi,South East,Defence Colony,\N
15635,Area-4,,,,,,,0,0,0,SubCentre,Delhi,Central,Kotwali,\N
15647,Area-2,,,,,,,0,0,0,SubCentre,Delhi,Shahdara,Vivek Vihar,\N
15716,Area-4,,,,,,,0,0,0,SubCentre,Delhi,New Delhi,Delhi Cantonment,\N
15743,Area-7,,,,,,,0,0,0,SubCentre,Delhi,Shahdara,Vivek Vihar,\N
15817,Area-4,,,,,,,0,0,0,SubCentre,Delhi,North West,Saraswati Vihar,\N
15827,DGD Issapur,Delhi Govt. Dispensary,Issapur,,Issapur,110073,25031345,28.575556,76.867427,0,Dispensaries,Delhi,South-West,Najafgarh,\N
15833,Area-2,,,,,,,0,0,0,SubCentre,Delhi,West,Patel Nagar,\N
15941,Area-2,,,,,,,0,0,0,SubCentre,Delhi,South,Hauz Khas,\N
16043,Area-1,,,,,,,0,0,0,SubCentre,Delhi,North,Alipur,\N
16070,Area-3,,,,,,,0,0,0,SubCentre,Delhi,North,Model Town,\N
16110,Area-8,,,,,,,0,0,0,SubCentre,Delhi,New Delhi,Delhi Cantonment,\N
16152,DGD Rohini Sector18,"Delhi Govt Dispensary,  B-Block",Sector-18,,Rohini,110085,27855484,28.73,77.13,0,Dispensaries,Delhi,North West,Rohini,\N
16224,Area-1,,,,,,,0,0,0,SubCentre,Delhi,North West,Kanjhawla,\N
16230,Area-3,,,,,,,0,0,0,SubCentre,Delhi,South East,Defence Colony,\N
16295,Area-2,,,,,,,0,0,0,SubCentre,Delhi,North,Alipur,\N
16322,Area-1,,,,,,,0,0,0,SubCentre,Delhi,North West,Saraswati Vihar,\N
16328,Area-6,,,,,,,0,0,0,SubCentre,Delhi,East,Mayur Vihar,\N
16340,Area-1,,,,,,,0,0,0,SubCentre,Delhi,New Delhi,Chanakya Puri,\N
16367,SPUHC Mohan Garden,B-12,P-EXTN.,uttam nagar,"MOHAN GARDEN,",110059,25359180,28.63,77.03,0,Dispensaries,Delhi,West,Patel Nagar,\N
16418,Area-2,,,,,,,0,0,0,SubCentre,Delhi,North West,Saraswati Vihar,\N
16600,Area-1,,,,,,,0,0,0,SubCentre,Delhi,North West,Saraswati Vihar,\N
16611,Area-3,,,,,,,0,0,0,SubCentre,Delhi,North West,Saraswati Vihar,\N
16634,Area-2,,,,,,,0,0,0,SubCentre,Delhi,South East,Defence Colony,\N
16641,Area-15,,,,,,,0,0,0,SubCentre,Delhi,North West,Kanjhawla,\N
16803,Area-4,,,,,,,0,0,0,SubCentre,Delhi,West,Punjabi Bagh,\N
16842,SPUHC Sangam Vihar L 2,"1010/23, Shiv Shakti Mandir,","Shani Bazar, Sangam Vihar",,24,110062,29914597,28.496561,77.232907,0,Dispensaries,Delhi,South,Saket,\N
16845,Area-6,,,,,,,0,0,0,SubCentre,Delhi,West,Patel Nagar,\N
16911,Area-4,,,,,,,0,0,0,SubCentre,Delhi,North West,Rohini,\N
17189,MCW Dev Nagar,Gali No-2 and 3,Main Road,Regarpura,Karol Bagh,110005,011-28720316,28.65376489,77.18999175,0,M&CW Center,Delhi,Central,Karol Bagh,\N
17195,Area-8,,,,,,,0,0,0,SubCentre,Delhi,North,Alipur,\N
17271,Area-4 (070602204),,,,,,,0,0,0,SubCentre,Delhi,Central,Karol Bagh,\N
17357,Area-2,,,,,,,0,0,0,SubCentre,Delhi,North,Narela,\N
17711,Area-1,,,,,,,0,0,0,SubCentre,Delhi,West,Punjabi Bagh,\N
17763,Area-1,,,,,,,0,0,0,SubCentre,Delhi,North West,Kanjhawla,\N
17817,Area-1,,,,,,,0,0,0,SubCentre,Delhi,West,Patel Nagar,\N
17832,Area-1,,,,,,,0,0,0,SubCentre,Delhi,West,Punjabi Bagh,\N
17863,Area-1,,,,,,,0,0,0,SubCentre,Delhi,North West,Rohini,\N
17959,Area-4,,,,,,,0,0,0,SubCentre,Delhi,East,Gandhi Nagar,\N
18003,DGD Sarai Rohilla,Delhi Govt. Dispensary,Chandershekher Azad Coloney,"Sarai Rohilla,","Sarai Rohilla , Delhi",110035,23692478,28.666187,77.195463,0,Dispensaries,Delhi,Central,Kotwali,\N
18044,Area-3,,,,,,,0,0,0,SubCentre,Delhi,South,Saket,\N
18061,Area- C,,,,,,,0,0,0,SubCentre,Delhi,North West,Rohini,\N
18108,Area-1,,,,,,,0,0,0,SubCentre,Delhi,West,Punjabi Bagh,\N
18127,Area-1,,,,,,,0,0,0,SubCentre,Delhi,North,Model Town,\N
18156,DGD Dilshad Garden,"A-13/G1&G2, block A",,,Dilshad gaarden,110095,22585490,28.67993,77.313375,0,Dispensaries,Delhi,Shahdara,Vivek Vihar,\N
18201,Area-C,,,,,,,0,0,0,SubCentre,Delhi,Central,Kotwali,\N
18237,Area-6,,,,,,,0,0,0,SubCentre,Delhi,Central,Karol Bagh,\N
18303,Area-C,,,,,,,0,0,0,SubCentre,Delhi,West,Rajouri Garden,\N
18403,Area-10,,,,,,,0,0,0,SubCentre,Delhi,North West,Saraswati Vihar,\N
18461,Area-5,,,,,,,0,0,0,SubCentre,Delhi,North,Narela,\N
18493,Area-11,,,,,,,0,0,0,SubCentre,Delhi,North,Narela,\N
18582,Area-C,,,,,,,0,0,0,SubCentre,Delhi,South,Saket,\N
18672,Area-1 (070605001),,,,,,,0,0,0,SubCentre,Delhi,Central,Civil Lines,\N
18684,Area-6,,,,,,,0,0,0,SubCentre,Delhi,North West,Rohini,\N
18753,Area-1,,,,,,,0,0,0,SubCentre,Delhi,North West,Rohini,\N
18866,Area-6,,,,,,,0,0,0,SubCentre,Delhi,North West,Kanjhawla,\N
18868,Area-C,,,,,,,0,0,0,SubCentre,Delhi,East,Mayur Vihar,\N
18911,DGD Nangloi,"Delhi Govt. Dispensary, C-Block,","Community Centre,","J.J.Colony-II,","Nangloi,",110041,011-25474141,28.68,77.05,0,Dispensaries,Delhi,West,Punjabi Bagh,\N
18944,Area-9,,,,,,,0,0,0,SubCentre,Delhi,West,Punjabi Bagh,\N
18949,Area-3,,,,,,,0,0,0,SubCentre,Delhi,North,Narela,\N
19016,Area-1,,,,,,,0,0,0,SubCentre,Delhi,West,Patel Nagar,\N
19059,Area - C,,,,,,,0,0,0,SubCentre,Delhi,Central,Kotwali,\N
19074,Area-5,,,,,,,0,0,0,SubCentre,Delhi,West,Patel Nagar,\N
19157,Area-5,,,,,,,0,0,0,SubCentre,Delhi,North West,Rohini,\N
19159,Area-C,,,,,,,0,0,0,SubCentre,Delhi,West,Patel Nagar,\N
19312,Area-C,,,,,,,0,0,0,SubCentre,Delhi,East,Gandhi Nagar,\N
19314,Area-1 (070602901),,,,,,,0,0,0,SubCentre,Delhi,Central,Karol Bagh,\N
19366,Area-1,,,,,,,0,0,0,SubCentre,Delhi,New Delhi,Chanakya Puri,\N
19450,Area-2,,,,,,,0,0,0,SubCentre,Delhi,Shahdara,Vivek Vihar,\N
19491,Area-C,,,,,,,0,0,0,SubCentre,Delhi,South-West,Dwarka,\N
19539,Area-2,,,,,,,0,0,0,SubCentre,Delhi,North-East,Yamuna Vihar,\N
19565,Area-5,,,,,,,0,0,0,SubCentre,Delhi,North West,Rohini,\N
19578,Area - C,,,,,,,0,0,0,SubCentre,Delhi,Central,Civil Lines,\N
19647,Area-4,,,,,,,0,0,0,SubCentre,Delhi,North-East,Seelam Pur,\N
19720,Area-3,,,,,,,0,0,0,SubCentre,Delhi,East,Gandhi Nagar,\N
19721,Area -3,,,,,,,0,0,0,SubCentre,Delhi,Central,Kotwali,\N
19741,Area-5,,,,,,,0,0,0,SubCentre,Delhi,North,Model Town,\N
19830,Area-C,,,,,,,0,0,0,SubCentre,Delhi,North West,Rohini,\N
19934,Area-C,,,,,,,0,0,0,SubCentre,Delhi,North-East,Yamuna Vihar,\N
19989,Area-1,,,,,,,0,0,0,SubCentre,Delhi,North West,Saraswati Vihar,\N
20067,Area-20,,,,,,,0,0,0,SubCentre,Delhi,North West,Kanjhawla,\N
20117,Area-5,,,,,,,0,0,0,SubCentre,Delhi,West,Rajouri Garden,\N
20170,Lal Bahadur Shastri Hospital,LAL BHADUR SHASTRI HOSPITAL,KHICHRIPUR,Near Kalyanvas,Mayur Vihar,110091,,28.6181,77.312,0,100-500 Bedded Hospital,Delhi,East,Mayur Vihar,\N
20217,DGD I.P. Extn.,DGD I.P. Extn.,SUBHASH APPT,I.P. EXTENTION Patparganj,I.P. EXTENTION,110091,011-22234321,28.6326,77.3085,0,Dispensaries,Delhi,East,Preet Vihar,\N
20263,Area-2,,,,,,,0,0,0,SubCentre,Delhi,North-East,Seelam Pur,\N
20305,Area-3,,,,,,,0,0,0,SubCentre,Delhi,South East,Kalkaji,\N
20381,Area-4,,,,,,,0,0,0,SubCentre,Delhi,North,Model Town,\N
20429,Area-3,,,,,,,0,0,0,SubCentre,Delhi,North,Model Town,\N
20483,Area-4,,,,,,,0,0,0,SubCentre,Delhi,North-East,Yamuna Vihar,\N
20485,Area-5,,,,,,,0,0,0,SubCentre,Delhi,North West,Rohini,\N
20513,Area-13,,,,,,,0,0,0,SubCentre,Delhi,West,Patel Nagar,\N
20530,Area-4,,,,,,,0,0,0,SubCentre,Delhi,Central,Kotwali,\N
20569,Area-2,,,,,,,0,0,0,SubCentre,Delhi,South East,Defence Colony,\N
20706,Area-C,,,,,,,0,0,0,SubCentre,Delhi,South East,Defence Colony,\N
20715,DGD Timarpur,,"Delhi Administration Flats, Timarpur",,Timarpur,110054,1123817148,28.7,77.22,0,Dispensaries,Delhi,Central,Civil Lines,\N
20719,Area-5,,,,,,,0,0,0,SubCentre,Delhi,South-West,Kapashera,\N
20742,SPUHC Dharampura,Delhi Govt. Dispensary,,Near Ekta Model School,Dharampura,110075,25322280,28.608465,76.992291,0,Dispensaries,Delhi,South-West,Najafgarh,\N
20751,Area-1,,,,,,,0,0,0,SubCentre,Delhi,North,Narela,\N
20845,Area-3,,,,,,,0,0,0,SubCentre,Delhi,North West,Rohini,\N
20885,Area-C,,,,,,,0,0,0,SubCentre,Delhi,East,Mayur Vihar,\N
20890,Area-1 (070607001),,,,,,,0,0,0,SubCentre,Delhi,Central,Kotwali,\N
20919,Area-7,,,,,,,0,0,0,SubCentre,Delhi,South East,Sarita Vihar,\N
20983,Area-5,,,,,,,0,0,0,SubCentre,Delhi,South,Hauz Khas,\N
20987,Area-2,,,,,,,0,0,0,SubCentre,Delhi,West,Rajouri Garden,\N
21040,Area- C,,,,,,,0,0,0,SubCentre,Delhi,North,Narela,\N
21053,Area-1,,,,,,,0,0,0,SubCentre,Delhi,North West,Rohini,\N
21093,Area-C,,,,,,,0,0,0,SubCentre,Delhi,West,Punjabi Bagh,\N
21222,Area-6,,,,,,,0,0,0,SubCentre,Delhi,North,Alipur,\N
21361,DGD Tank Road,"1st Floor, Community Center",Karol Bagh,Near Jeans Market,Karol Bagh,110005,011-25860423,28.65070897,77.18177328,0,Dispensaries,Delhi,Central,Karol Bagh,\N
21413,Area-3 (070606803),,,,,,,0,0,0,SubCentre,Delhi,Central,Kotwali,\N
21439,Area-7,,,,,,,0,0,0,SubCentre,Delhi,North,Narela,\N
21456,Area-3,,,,,,,0,0,0,SubCentre,Delhi,South East,Sarita Vihar,\N
21492,Area-3,,,,,,,0,0,0,SubCentre,Delhi,East,Preet Vihar,\N
21535,Area-1,,,,,,,0,0,0,SubCentre,Delhi,North-East,Seelam Pur,\N
21590,Area-4,,,,,,,0,0,0,SubCentre,Delhi,West,Patel Nagar,\N
21630,Area-1,,,,,,,0,0,0,SubCentre,Delhi,East,Mayur Vihar,\N
21734,Area-3,,,,,,,0,0,0,SubCentre,Delhi,North,Narela,\N
21898,Area-15,,,,,,,0,0,0,SubCentre,Delhi,North,Narela,\N
21939,Area-9,,,,,,,0,0,0,SubCentre,Delhi,Central,Civil Lines,\N
21983,Area-7,,,,,,,0,0,0,SubCentre,Delhi,South,Mehrauli,\N
22143,Area - C,,,,,,,0,0,0,SubCentre,Delhi,Central,Kotwali,\N
22238,Area-8,,,,,,,0,0,0,SubCentre,Delhi,North West,Saraswati Vihar,\N
22255,Area-C,,,,,,,0,0,0,SubCentre,Delhi,South,Saket,\N
22360,Area-10,,,,,,,0,0,0,SubCentre,Delhi,North West,Kanjhawla,\N
22371,DGD Choukhandi,B-Block,Resettlement Colony,Near Gurudwara,"Choukhandi,",110018,28334276,28.64,77.16,0,Dispensaries,Delhi,West,Patel Nagar,\N
22377,Area-1,,,,,,,0,0,0,SubCentre,Delhi,North West,Saraswati Vihar,\N
22380,Area-4,,,,,,,0,0,0,SubCentre,Delhi,North,Model Town,\N
22430,Area-1,,,,,,,0,0,0,SubCentre,Delhi,North-East,Karawal Nagar,\N
22499,Area-3,,,,,,,0,0,0,SubCentre,Delhi,Central,Karol Bagh,\N
22526,Area-2,,,,,,,0,0,0,SubCentre,Delhi,Shahdara,Shahdara,\N
22615,Area-7,,,,,,,0,0,0,SubCentre,Delhi,North,Narela,\N
22667,DGD Ashok Nagar,,Gali No. 9,,ashok nagar,110032,22803436,28.6983846,77.2997944,0,Dispensaries,Delhi,Shahdara,Shahdara,\N
22729,Area-5,,,,,,,0,0,0,SubCentre,Delhi,West,Punjabi Bagh,\N
22794,Area-5,,,,,,,0,0,0,SubCentre,Delhi,West,Punjabi Bagh,\N
22867,Area-4,,,,,,,0,0,0,SubCentre,Delhi,South-West,Dwarka,\N
22876,Area-3,,,,,,,0,0,0,SubCentre,Delhi,South,Hauz Khas,\N
22882,Area-7,,,,,,,0,0,0,SubCentre,Delhi,West,Patel Nagar,\N
23048,Area-1,,,,,,,0,0,0,SubCentre,Delhi,East,Gandhi Nagar,\N
23090,Area-6,,,,,,,0,0,0,SubCentre,Delhi,West,Rajouri Garden,\N
23164,Area-C,,,,,,,0,0,0,SubCentre,Delhi,South-West,Dwarka,\N
23195,Area-9,,,,,,,0,0,0,SubCentre,Delhi,North West,Kanjhawla,\N
23263,Area-1,,,,,,,0,0,0,SubCentre,Delhi,Shahdara,Vivek Vihar,\N
23270,Area-4,,,,,,,0,0,0,SubCentre,Delhi,West,Patel Nagar,\N
23370,DGD Kanganheri,Delhi Govt. Dispensary,Kangenheri,Near Shri Krishna Public School,Kangenheri,110071,25316651,28.54697,76.987281,0,Dispensaries,Delhi,South-West,Kapashera,\N
23386,SPUHC Sitapuri,Delhi Govt. Dispensary,"D-293, gali no. 55",,"Mahavir Enclave, Part-3, Sitapuri, New Delhi",110059,25639157,28.604227,77.067906,0,Dispensaries,Delhi,South-West,Dwarka,\N
23387,Area-2,,,,,,,0,0,0,SubCentre,Delhi,New Delhi,Chanakya Puri,\N
23499,MCW Baprolla,,Baprolla Vihar,Near Lal Convent School,Baprolla,110028,,28.632,77.018,0,M&CW Center,Delhi,West,Punjabi Bagh,\N
23611,Area-9,,,,,,,0,0,0,SubCentre,Delhi,North West,Saraswati Vihar,\N
23620,Area-2,,,,,,,0,0,0,SubCentre,Delhi,North,Narela,\N
23649,DGD Johri Pur,"Shani Bazar,","Gali Guzzar Mohall,",,"Johripur, Delhi-94",110094,22817651,28.715,77.2848,0,Dispensaries,Delhi,North-East,Karawal Nagar,\N
23740,Area-C,,,,,,,0,0,0,SubCentre,Delhi,New Delhi,Delhi Cantonment,\N
23741,Area-19,,,,,,,0,0,0,SubCentre,Delhi,North,Narela,\N
23777,DGD Model Town,"?Ÿƒ?????ÿDDA Flats,","Model Town, Part-l",,Model Town,110009,27248806,28.7039,77.1931,0,Dispensaries,Delhi,North,Model Town,\N
23778,Area-5,,,,,,,0,0,0,SubCentre,Delhi,South,Saket,\N
23779,Area-1,,,,,,,0,0,0,SubCentre,Delhi,South East,Kalkaji,\N
23817,Area-2 (070606102),,,,,,,0,0,0,SubCentre,Delhi,Central,Civil Lines,\N
23867,Area- C,,,,,,,0,0,0,SubCentre,Delhi,North,Model Town,\N
23883,Area-7,,,,,,,0,0,0,SubCentre,Delhi,East,Mayur Vihar,\N
23884,Area-C,,,,,,,0,0,0,SubCentre,Delhi,West,Patel Nagar,\N
23960,Area-9,,,,,,,0,0,0,SubCentre,Delhi,North West,Saraswati Vihar,\N
23981,MH Geeta Colony,Block 8 Geeta colony,"Trikona Park, Budh Bazar Geeta Colony",Nr. Mother Dairy Booth,Geeta Colony,110031,011-22505818,28.6554,77.2694,0,Maternity Home,Delhi,East,Gandhi Nagar,\N
24146,Area-C,,,,,,,0,0,0,SubCentre,Delhi,Central,Kotwali,\N
24156,Area-6,,,,,,,0,0,0,SubCentre,Delhi,North West,Saraswati Vihar,\N
24248,Area-3,,,,,,,0,0,0,SubCentre,Delhi,West,Patel Nagar,\N
24417,Area-4,,,,,,,0,0,0,SubCentre,Delhi,North West,Kanjhawla,\N
24557,Area-2,,,,,,,0,0,0,SubCentre,Delhi,West,Punjabi Bagh,\N
24618,Area-3,,,,,,,0,0,0,SubCentre,Delhi,North West,Rohini,\N
24725,Area-2,,,,,,,0,0,0,SubCentre,Delhi,North,Model Town,\N
24778,Area-1,,,,,,,0,0,0,SubCentre,Delhi,North-East,Karawal Nagar,\N
24780,SPUHC Qutub Vihar,Delhi Govt. Dispensary,Samta Enclave,Near Tarun Properties,"Qutub vihar, New Delhi",110071,,28.574641,77.032354,0,Dispensaries,Delhi,South-West,Kapashera,\N
25044,Area-4,,,,,,,0,0,0,SubCentre,Delhi,South East,Kalkaji,\N
25114,Area-5,,,,,,,0,0,0,SubCentre,Delhi,West,Patel Nagar,\N
25171,Area-3,,,,,,,0,0,0,SubCentre,Delhi,North West,Saraswati Vihar,\N
25467,Area-1 (070601601),,,,,,,0,0,0,SubCentre,Delhi,Central,Karol Bagh,\N
25857,Area-C,,,,,,,0,0,0,SubCentre,Delhi,Central,Kotwali,\N
25868,Area-6,,,,,,,0,0,0,SubCentre,Delhi,North-East,Seelam Pur,\N
25905,Area-8,,,,,,,0,0,0,SubCentre,Delhi,North West,Rohini,\N
25930,DGD Anand Parbat,Delhi Govt. Dispesnary,Gali No.16,"Nai Basti, Anand Parvat",Karol Bagh,110005,28764106,28.66023101,77.18013308,0,Dispensaries,Delhi,Central,Kotwali,\N
25939,Area-1,,,,,,,0,0,0,SubCentre,Delhi,South-West,Dwarka,\N
25995,Area-5,,,,,,,0,0,0,SubCentre,Delhi,North West,Saraswati Vihar,\N
26048,Area-C,,,,,,,0,0,0,SubCentre,Delhi,South East,Kalkaji,\N
26089,DGD Pandav Nagar,B 28,"Pandav Nagar, Patparganj",Near Gurudwara Pandav Nagar,Patparganj,110092,1122484941,28.619622,77.283263,0,Dispensaries,Delhi,East,Mayur Vihar,\N
26155,Area-6,,,,,,,0,0,0,SubCentre,Delhi,West,Punjabi Bagh,\N
26176,Area-1,,,,,,,0,0,0,SubCentre,Delhi,East,Mayur Vihar,\N
26283,Area-2,,,,,,,0,0,0,SubCentre,Delhi,North West,Saraswati Vihar,\N
26324,Area-2,,,,,,,0,0,0,SubCentre,Delhi,New Delhi,Delhi Cantonment,\N
26361,Area-3,,,,,,,0,0,0,SubCentre,Delhi,North West,Kanjhawla,\N
26402,DGD Holambi Kalan PH1,,,,,,,0,0,0,Dispensaries,Delhi,North,Narela,\N
26439,Area-4 (070608004),,,,,,,0,0,0,SubCentre,Delhi,Central,Civil Lines,\N
26510,Area-C,,,,,,,0,0,0,SubCentre,Delhi,North-East,Yamuna Vihar,\N
26524,Area-2,,,,,,,0,0,0,SubCentre,Delhi,West,Patel Nagar,\N
26576,SPUHC Kakrola,"B-33,","Shivani Enclave,","Near Dwarka Metro Station, Kakrola, New Delhi 110078",Kakrola,110078,25330087,28.61,77.026,0,Dispensaries,Delhi,South-West,Dwarka,\N
26702,Area-5,,,,,,,0,0,0,SubCentre,Delhi,South East,Kalkaji,\N
26745,Area-1,,,,,,,0,0,0,SubCentre,Delhi,East,Preet Vihar,\N
26765,DGD New Seemapuri,,,,Seemapuri,110095,22570036,28.6895,77.32764,0,Dispensaries,Delhi,Shahdara,Vivek Vihar,\N
26779,Area-6,,,,,,,0,0,0,SubCentre,Delhi,North,Model Town,\N
26792,Area-8,,,,,,,0,0,0,SubCentre,Delhi,West,Patel Nagar,\N
26849,Area-1,,,,,,,0,0,0,SubCentre,Delhi,North-East,Yamuna Vihar,\N
26863,Area-3 (070607303),,,,,,,0,0,0,SubCentre,Delhi,Central,Kotwali,\N
26884,Area-1,,,,,,,0,0,0,SubCentre,Delhi,North West,Kanjhawla,\N
26895,Area-5,,,,,,,0,0,0,SubCentre,Delhi,West,Patel Nagar,\N
27020,Area-2,,,,,,,0,0,0,SubCentre,Delhi,West,Patel Nagar,\N
27112,MCW Wazir Pur,Phase-1,Ashok Vihar,Adjacent to Police Station,,110052,27435615,28.6918279,77.1677924,0,M&CW Center,Delhi,North West,Saraswati Vihar,\N
27125,Area-5,,,,,,,0,0,0,SubCentre,Delhi,South East,Kalkaji,\N
27290,Area-8,,,,,,,0,0,0,SubCentre,Delhi,West,Rajouri Garden,\N
27294,DGD Jaunti,DGD Building,Village Jaunti,,JAUNTI VILLAGE,110081,25951922,28.74994,76.96782,0,Dispensaries,Delhi,North West,Kanjhawla,\N
27315,Area-6,,,,,,,0,0,0,SubCentre,Delhi,West,Rajouri Garden,\N
27372,Area-C,,,,,,,0,0,0,SubCentre,Delhi,Shahdara,Vivek Vihar,\N
27408,Area-1,,,,,,,0,0,0,SubCentre,Delhi,West,Patel Nagar,\N
27481,Area-1,,,,,,,0,0,0,SubCentre,Delhi,West,Patel Nagar,\N
27498,Area-5,,,,,,,0,0,0,SubCentre,Delhi,North West,Rohini,\N
27583,Area-3,,,,,,,0,0,0,SubCentre,Delhi,North,Narela,\N
27636,Area-1,,,,,,,0,0,0,SubCentre,Delhi,North West,Saraswati Vihar,\N
27650,Area-1,,,,,,,0,0,0,SubCentre,Delhi,Shahdara,Vivek Vihar,\N
27670,Area-2,,,,,,,0,0,0,SubCentre,Delhi,West,Patel Nagar,\N
27719,Area-6,,,,,,,0,0,0,SubCentre,Delhi,North West,Kanjhawla,\N
27723,Area -C,,,,,,,0,0,0,SubCentre,Delhi,Central,Civil Lines,\N
27845,PHD Family Welfare Foundation,,,,,,,0,0,0,Urban Health Posts,Delhi,East,Preet Vihar,\N
27943,Area-1,,,,,,,0,0,0,SubCentre,Delhi,South,Saket,\N
27975,Area-7,,,,,,,0,0,0,SubCentre,Delhi,South,Saket,\N
28005,Area-C,,,,,,,0,0,0,SubCentre,Delhi,West,Patel Nagar,\N
28078,Area-2,,,,,,,0,0,0,SubCentre,Delhi,South East,Defence Colony,\N
28098,Area-3,,,,,,,0,0,0,SubCentre,Delhi,South East,Defence Colony,\N
28243,Area-1 (070601001),,,,,,,0,0,0,SubCentre,Delhi,Central,Karol Bagh,\N
28302,Area-1,,,,,,,0,0,0,SubCentre,Delhi,New Delhi,Delhi Cantonment,\N
28325,Area-8,,,,,,,0,0,0,SubCentre,Delhi,South-West,Dwarka,\N
28430,Area-C,,,,,,,0,0,0,SubCentre,Delhi,South,Mehrauli,\N
28440,Area-4,,,,,,,0,0,0,SubCentre,Delhi,West,Punjabi Bagh,\N
28446,Area-7,,,,,,,0,0,0,SubCentre,Delhi,East,Mayur Vihar,\N
28486,UHC Gokulpuri (duplicate for deletion),,,,,,,0,0,0,Urban Health Centre,Delhi,North-East,Seelam Pur,\N
28489,Area-7,,,,,,,0,0,0,SubCentre,Delhi,South East,Sarita Vihar,\N
28586,Area- C,,,,,,,0,0,0,SubCentre,Delhi,Central,Kotwali,\N
28744,Area-2,,,,,,,0,0,0,SubCentre,Delhi,New Delhi,Chanakya Puri,\N
28746,Area-1,,,,,,,0,0,0,SubCentre,Delhi,North West,Saraswati Vihar,\N
28974,DGD Chirag Delhi,"H. No.828, Chirag Delhi.Delhi.110017","H. No.828, Chirag Delhi.Delhi.110017","H. No.828, Chirag Delhi.Delhi.110017",56,110017,011-29913539,28.537819,77.22915,0,Dispensaries,Delhi,South,Hauz Khas,\N
28979,Area-3 (070607202),,,,,,,0,0,0,SubCentre,Delhi,Central,Kotwali,\N
29005,SPUHC New Mustafabad,"Property No. 201/4,",gali no 4,,"25ft Road, New Mustafabad",110094,,28.7079,77.2674,0,Dispensaries,Delhi,North-East,Yamuna Vihar,\N
29052,DGD Pandwalan Kalan,Delhi Govt. Dispensary,,Near Sr Secondry Govt. School,Pandwala Kalan,110043,28013068,28.572464,76.954338,0,Dispensaries,Delhi,South-West,Kapashera,\N
29141,MCW Shahpur Jat,"Govt boys primary school,opp BSES",",malviyanagar, New Delhi-17",",malviyanagar, New Delhi-17",13,110017,,28.53671,77.214003,0,M&CW Center,Delhi,South,Hauz Khas,\N
29165,Area-4,,,,,,,0,0,0,SubCentre,Delhi,Shahdara,Shahdara,\N
29222,Area-5,,,,,,,0,0,0,SubCentre,Delhi,South,Mehrauli,\N
29244,Area-C,,,,,,,0,0,0,SubCentre,Delhi,South-West,Najafgarh,\N
29292,Area-2,,,,,,,0,0,0,SubCentre,Delhi,Shahdara,Vivek Vihar,\N
29461,Area-10,,,,,,,0,0,0,SubCentre,Delhi,West,Rajouri Garden,\N
29590,Area-C (070600503),,,,,,,0,0,0,SubCentre,Delhi,Central,Karol Bagh,\N
29671,Area-7,,,,,,,0,0,0,SubCentre,Delhi,North West,Saraswati Vihar,\N
29694,Area-1,,,,,,,0,0,0,SubCentre,Delhi,North West,Rohini,\N
29732,Area-3,,,,,,,0,0,0,SubCentre,Delhi,West,Patel Nagar,\N
29878,Area-1,,,,,,,0,0,0,SubCentre,Delhi,South,Hauz Khas,\N
29914,MCW Kailash Nagar,First floor,"Pandit,. Deen dayal upadhayay Ayurvedic Chikitsalaya",Opp. Mty. Home geeta Colony,Gandhi Nagar,110031,,28.6554,77.2694,0,M&CW Center,Delhi,East,Gandhi Nagar,\N
29989,Area-1,,,,,,,0,0,0,SubCentre,Delhi,Central,Karol Bagh,\N
29999,DGD Karkardooma Village,Opp. Saini Enclave LSC,,,karkardooma,110092,22371280,28.6515,77.303889,0,Dispensaries,Delhi,Shahdara,Vivek Vihar,\N
30109,Area-10,,,,,,,0,0,0,SubCentre,Delhi,South-West,Kapashera,\N
30113,Area-5,,,,,,,0,0,0,SubCentre,Delhi,West,Patel Nagar,\N
30116,Area-2,,,,,,,0,0,0,SubCentre,Delhi,South East,Defence Colony,\N
30118,Area-8 (070607707),,,,,,,0,0,0,SubCentre,Delhi,Central,Civil Lines,\N
30170,Area-1,,,,,,,0,0,0,SubCentre,Delhi,East,Preet Vihar,\N
30277,Area-2,,,,,,,0,0,0,SubCentre,Delhi,East,Preet Vihar,\N
30325,Area-6,,,,,,,0,0,0,SubCentre,Delhi,North West,Rohini,\N
30350,Area-4,,,,,,,0,0,0,SubCentre,Delhi,Shahdara,Vivek Vihar,\N
30389,Area-3,,,,,,,0,0,0,SubCentre,Delhi,North West,Saraswati Vihar,\N
30411,Area-8,,,,,,,0,0,0,SubCentre,Delhi,West,Punjabi Bagh,\N
30509,Area-3,,,,,,,0,0,0,SubCentre,Delhi,East,Mayur Vihar,\N
30590,Area-2,,,,,,,0,0,0,SubCentre,Delhi,North-East,Seelam Pur,\N
30606,Area-3 (070607402),,,,,,,0,0,0,SubCentre,Delhi,Central,Kotwali,\N
30653,Area-1,,,,,,,0,0,0,SubCentre,Delhi,New Delhi,Chanakya Puri,\N
30760,Area-1,,,,,,,0,0,0,SubCentre,Delhi,South-West,Najafgarh,\N
30829,Area-1,,,,,,,0,0,0,SubCentre,Delhi,South,Hauz Khas,\N
30965,Area-3,,,,,,,0,0,0,SubCentre,Delhi,North,Narela,\N
31003,Area-8,,,,,,,0,0,0,SubCentre,Delhi,North West,Saraswati Vihar,\N
31022,Area-C,,,,,,,0,0,0,SubCentre,Delhi,West,Rajouri Garden,\N
31044,Maternity Home Mundka to be deleted,,,,,,,0,0,0,Maternity Home,Delhi,West,Punjabi Bagh,\N
31126,Area-3,,,,,,,0,0,0,SubCentre,Delhi,South-West,Najafgarh,\N
31180,Area-5,,,,,,,0,0,0,SubCentre,Delhi,East,Preet Vihar,\N
31224,Area-5,,,,,,,0,0,0,SubCentre,Delhi,West,Punjabi Bagh,\N
31225,DGD Rajokari,,,Near Tower & Community Centre,Rajokari,110038,011-25063937,28.51310351,77.10684278,0,Dispensaries,Delhi,New Delhi,Vasant Vihar,\N
31348,Area-C,,,,,,,0,0,0,SubCentre,Delhi,New Delhi,Vasant Vihar,\N
31363,Area-1,,,,,,,0,0,0,SubCentre,Delhi,North,Alipur,\N
31403,Area-1,,,,,,,0,0,0,SubCentre,Delhi,New Delhi,Vasant Vihar,\N
31480,Area-7,,,,,,,0,0,0,SubCentre,Delhi,New Delhi,Vasant Vihar,\N
31579,Area-2,,,,,,,0,0,0,SubCentre,Delhi,West,Punjabi Bagh,\N
31603,Area-8,,,,,,,0,0,0,SubCentre,Delhi,West,Patel Nagar,\N
31789,Area-7,,,,,,,0,0,0,SubCentre,Delhi,West,Rajouri Garden,\N
31798,Area-6,,,,,,,0,0,0,SubCentre,Delhi,South-West,Kapashera,\N
31868,Area-4,,,,,,,0,0,0,SubCentre,Delhi,North West,Saraswati Vihar,\N
32065,Area-6 (070607106),,,,,,,0,0,0,SubCentre,Delhi,Central,Civil Lines,\N
32390,MCW Madanpur Khadar,"opposite vetrnary hospital,","village Madanpur Khadar,",,badarpur,110076,,28.704059,77.10249,0,M&CW Center,Delhi,South East,Sarita Vihar,\N
32497,Area-2,,,,,,,0,0,0,SubCentre,Delhi,West,Punjabi Bagh,\N
32543,MCW Budh Vihar,Phase-1,Budh Vihar,Near MCD Primary School,Budh Vihar,110086,27531716,28.70741,77.09107,0,M&CW Center,Delhi,North West,Rohini,\N
32549,Area-4,,,,,,,0,0,0,SubCentre,Delhi,North,Model Town,\N
32571,Area-8,,,,,,,0,0,0,SubCentre,Delhi,North,Alipur,\N
32691,Area-1,,,,,,,0,0,0,SubCentre,Delhi,South-West,Dwarka,\N
32778,Area-6,,,,,,,0,0,0,SubCentre,Delhi,South-West,Kapashera,\N
32807,Area-3,,,,,,,0,0,0,SubCentre,Delhi,North West,Saraswati Vihar,\N
32809,Area-1,,,,,,,0,0,0,SubCentre,Delhi,Shahdara,Seema Puri,\N
32935,Area- C,,,,,,,0,0,0,SubCentre,Delhi,North,Narela,\N
33060,DGD Mayur Vihar Phase 1,"436A, 437A&B, MIG flats",MAYUR VIHAR PHASE-1,Pocket-2,Mayur Vihar Phase 1,110091,011-22752593,28.6077,77.3012,0,Dispensaries,Delhi,East,Mayur Vihar,\N
33100,Area-2 (070601702),,,,,,,0,0,0,SubCentre,Delhi,Central,Kotwali,\N
33274,Area-4,,,,,,,0,0,0,SubCentre,Delhi,North West,Rohini,\N
33290,Area-C,,,,,,,0,0,0,SubCentre,Delhi,South-West,Dwarka,\N
33332,Area-1,,,,,,,0,0,0,SubCentre,Delhi,South-West,Najafgarh,\N
33353,Area-6,,,,,,,0,0,0,SubCentre,Delhi,West,Patel Nagar,\N
33428,Area-1,,,,,,,0,0,0,SubCentre,Delhi,South-West,Najafgarh,\N
33451,Area-16,,,,,,,0,0,0,SubCentre,Delhi,North,Narela,\N
33459,Area-5,,,,,,,0,0,0,SubCentre,Delhi,South East,Kalkaji,\N
33475,Area-2,,,,,,,0,0,0,SubCentre,Delhi,Shahdara,Vivek Vihar,\N
33483,Area-7,,,,,,,0,0,0,SubCentre,Delhi,North West,Rohini,\N
33560,Area-C,,,,,,,0,0,0,SubCentre,Delhi,West,Rajouri Garden,\N
33684,Area-5 (070601003),,,,,,,0,0,0,SubCentre,Delhi,Central,Karol Bagh,\N
33754,Area-3,,,,,,,0,0,0,SubCentre,Delhi,East,Preet Vihar,\N
33819,Area-C,,,,,,,0,0,0,SubCentre,Delhi,West,Patel Nagar,\N
33867,Area-2 (070606804),,,,,,,0,0,0,SubCentre,Delhi,Central,Kotwali,\N
33889,Area-2,,,,,,,0,0,0,SubCentre,Delhi,North,Narela,\N
33895,DGD RegarPura,"100 Quarters, Jagjeewan Niwas",Community Center,New Delhi,Karol Bagh,110005,011-25860557,28.64868129,77.18608605,0,Dispensaries,Delhi,Central,Karol Bagh,\N
33951,DGD Prashant Vihar,"B-Block,",Sector-14,Near Aggarwal Dharamshala,Rohini,110085,27562092,28.712009,77.132019,0,Dispensaries,Delhi,North West,Saraswati Vihar,\N
33985,Area-5,,,,,,,0,0,0,SubCentre,Delhi,South-West,Dwarka,\N
34027,Area-4,,,,,,,0,0,0,SubCentre,Delhi,New Delhi,Chanakya Puri,\N
34096,Area-2,,,,,,,0,0,0,SubCentre,Delhi,West,Patel Nagar,\N
34127,Area-2,,,,,,,0,0,0,SubCentre,Delhi,South-West,Dwarka,\N
34171,Area-7,,,,,,,0,0,0,SubCentre,Delhi,North,Alipur,\N
34185,Area-2,,,,,,,0,0,0,SubCentre,Delhi,West,Punjabi Bagh,\N
34216,Area-3,,,,,,,0,0,0,SubCentre,Delhi,West,Patel Nagar,\N
34315,Area-4,,,,,,,0,0,0,SubCentre,Delhi,North-East,Karawal Nagar,\N
34360,Area-4,,,,,,,0,0,0,SubCentre,Delhi,North,Model Town,\N
34364,Area-1,,,,,,,0,0,0,SubCentre,Delhi,South-West,Najafgarh,\N
34474,Area-4,,,,,,,0,0,0,SubCentre,Delhi,North,Model Town,\N
34575,Area-4,,,,,,,0,0,0,SubCentre,Delhi,North West,Kanjhawla,\N
34584,Area-4,,,,,,,0,0,0,SubCentre,Delhi,South-West,Dwarka,\N
34614,Area-4,,,,,,,0,0,0,SubCentre,Delhi,South East,Defence Colony,\N
34648,Area-11,,,,,,,0,0,0,SubCentre,Delhi,North,Alipur,\N
34667,Area-5,,,,,,,0,0,0,SubCentre,Delhi,West,Patel Nagar,\N
34706,Area-12,,,,,,,0,0,0,SubCentre,Delhi,North West,Saraswati Vihar,\N
34723,Area-6,,,,,,,0,0,0,SubCentre,Delhi,West,Punjabi Bagh,\N
34809,Area-5,,,,,,,0,0,0,SubCentre,Delhi,Shahdara,Seema Puri,\N
34813,Area-1,,,,,,,0,0,0,SubCentre,Delhi,West,Punjabi Bagh,\N
34848,MH Vishnu Garden,Mty Vishnu Gardan,S Block,,Vishnu garden,110018,25989021,28.6512,77.1021,0,Maternity Home,Delhi,West,Patel Nagar,\N
34887,Area-1,,,,,,,0,0,0,SubCentre,Delhi,Shahdara,Vivek Vihar,\N
35252,MCW Yamuna Vihar 1,,,,,,,0,0,0,M&CW Center,Delhi,North-East,Yamuna Vihar,\N
35308,Area-5,,,,,,,0,0,0,SubCentre,Delhi,North,Model Town,\N
35320,Area-5,,,,,,,0,0,0,SubCentre,Delhi,South East,Sarita Vihar,\N
35339,SPUHC Swaroop Nagar,Swaroop Nagar,Swaroop Nagar,,Swaroop Nagar,110042,27812075,28.7541,77.1516,0,Dispensaries,Delhi,North,Narela,\N
35399,Area-5,,,,,,,0,0,0,SubCentre,Delhi,South East,Defence Colony,\N
35415,Area-1,,,,,,,0,0,0,SubCentre,Delhi,South-West,Dwarka,\N
35440,Area-2,,,,,,,0,0,0,SubCentre,Delhi,North West,Rohini,\N
35780,Area-1,,,,,,,0,0,0,SubCentre,Delhi,East,Mayur Vihar,\N
35876,Area-7,,,,,,,0,0,0,SubCentre,Delhi,West,Rajouri Garden,\N
35879,Area-2,,,,,,,0,0,0,SubCentre,Delhi,South East,Defence Colony,\N
35945,Area-2,,,,,,,0,0,0,SubCentre,Delhi,South-West,Kapashera,\N
35957,Area-2,,,,,,,0,0,0,SubCentre,Delhi,West,Patel Nagar,\N
36080,Area-4,,,,,,,0,0,0,SubCentre,Delhi,North-East,Yamuna Vihar,\N
36082,Area-4,,,,,,,0,0,0,SubCentre,Delhi,North,Model Town,\N
36149,MH Rani Bagh,,"Sant Nagar Road, Shakurbasti",Near NDPL Office,,110034,27022763,28.6873,77.13363,0,M&CW Center,Delhi,North West,Saraswati Vihar,\N
36157,Area-1,,,,,,,0,0,0,SubCentre,Delhi,Shahdara,Vivek Vihar,\N
36163,Area-2,,,,,,,0,0,0,SubCentre,Delhi,East,Preet Vihar,\N
36287,Area-5,,,,,,,0,0,0,SubCentre,Delhi,West,Punjabi Bagh,\N
36431,Area-6,,,,,,,0,0,0,SubCentre,Delhi,New Delhi,Vasant Vihar,\N
36580,Area-3 (070604903),,,,,,,0,0,0,SubCentre,Delhi,Central,Civil Lines,\N
36642,Area-4,,,,,,,0,0,0,SubCentre,Delhi,North West,Rohini,\N
36719,Area-2 (070607204),,,,,,,0,0,0,SubCentre,Delhi,Central,Kotwali,\N
36758,Area-2,,,,,,,0,0,0,SubCentre,Delhi,South East,Defence Colony,\N
36867,Area-5,,,,,,,0,0,0,SubCentre,Delhi,North West,Saraswati Vihar,\N
36890,Area-4,,,,,,,0,0,0,SubCentre,Delhi,West,Punjabi Bagh,\N
36926,Area-2 (070601401),,,,,,,0,0,0,SubCentre,Delhi,Central,Kotwali,\N
36935,Area-2,,,,,,,0,0,0,SubCentre,Delhi,South East,Kalkaji,\N
36945,PHC Palam,Primary health Centre Palam,,Under Dwarka Fly Over,,110045,,28.591232,77.081821,0,Dispensaries,Delhi,South-West,Najafgarh,\N
37011,Area-5,,,,,,,0,0,0,SubCentre,Delhi,East,Mayur Vihar,\N
37128,Area-10,,,,,,,0,0,0,SubCentre,Delhi,South-West,Dwarka,\N
37140,Area-1,,,,,,,0,0,0,SubCentre,Delhi,West,Patel Nagar,\N
37147,Area-1 (070607101),,,,,,,0,0,0,SubCentre,Delhi,Central,Civil Lines,\N
37169,DGD Sec 12 Dwarka,Delhi Govt. Dispensary,Sec 12,,Dwarka,110075,28033844,28.593958,77.044191,0,Dispensaries,Delhi,South-West,Dwarka,\N
37207,Area-2,,,,,,,0,0,0,SubCentre,Delhi,Central,Karol Bagh,\N
37233,Area-4,,,,,,,0,0,0,SubCentre,Delhi,South,Saket,\N
37274,DGD Dakshinpuri,"Main Road, Dakshinpuri, Opp. Kali Building,  Dakshinpuri New-Delhi.110062","Main Road, Dakshinpuri, Opp. Kali Building,  Dakshinpuri New-Delhi.110062","Main Road, Dakshinpuri, Opp. Kali Building,  Dakshinpuri New-Delhi.110062",13,110062,011-29051383,28.519866,77.24021,0,Dispensaries,Delhi,South,Hauz Khas,\N
37347,Area-1,,,,,,,0,0,0,SubCentre,Delhi,New Delhi,Delhi Cantonment,\N
37443,MCW Basti Harphool Singh,"H. No. 5631, MCW Center","Near Madan Lal Halwai, Near Bara Tooti Chowk",Basti Harphool Singh,Sadar Bazar,110006,23559259,28.65568134,77.21095167,0,M&CW Center,Delhi,Central,Kotwali,\N
37456,Area-2,,,,,,,0,0,0,SubCentre,Delhi,North,Model Town,\N
37514,Area-5,,,,,,,0,0,0,SubCentre,Delhi,West,Punjabi Bagh,\N
37685,Area-6,,,,,,,0,0,0,SubCentre,Delhi,West,Punjabi Bagh,\N
37733,Area-1,,,,,,,0,0,0,SubCentre,Delhi,New Delhi,Delhi Cantonment,\N
37760,Area-12,,,,,,,0,0,0,SubCentre,Delhi,North,Alipur,\N
37873,DGD West Jyoti Nagar,,,,,,,0,0,0,Dispensaries,Delhi,Shahdara,Shahdara,\N
37907,Area-5,,,,,,,0,0,0,SubCentre,Delhi,North West,Saraswati Vihar,\N
38057,Area-5,,,,,,,0,0,0,SubCentre,Delhi,Central,Civil Lines,\N
38134,MCW Sarojini Nagar NDMC,CWC,Complex,Near Post Office,Sarojini Nagar,110023,011-24672666,28.57514121,77.20046457,0,M&CW Center,Delhi,New Delhi,Chanakya Puri,\N
38171,Area-5,,,,,,,0,0,0,SubCentre,Delhi,West,Punjabi Bagh,\N
38192,Area-1,,,,,,,0,0,0,SubCentre,Delhi,West,Patel Nagar,\N
38261,MCW Sultanpuri C Block,"C-1/35, Janta quarter",,,Sultanpuri,110086,,28.7004,77.0762,0,M&CW Center,Delhi,North West,Rohini,\N
38288,Area-5,,,,,,,0,0,0,SubCentre,Delhi,East,Preet Vihar,\N
38527,Area-3,,,,,,,0,0,0,SubCentre,Delhi,North,Narela,\N
38583,Area-4,,,,,,,0,0,0,SubCentre,Delhi,West,Rajouri Garden,\N
38588,Area-5,,,,,,,0,0,0,SubCentre,Delhi,South East,Sarita Vihar,\N
38726,Area-5,,,,,,,0,0,0,SubCentre,Delhi,North West,Saraswati Vihar,\N
38793,Area-3,,,,,,,0,0,0,SubCentre,Delhi,South,Saket,\N
38849,Area-1 (070600304),,,,,,,0,0,0,SubCentre,Delhi,Central,Kotwali,\N
38923,Area-7 (070607708),,,,,,,0,0,0,SubCentre,Delhi,Central,Civil Lines,\N
38935,Area-3,,,,,,,0,0,0,SubCentre,Delhi,South-West,Dwarka,\N
39080,Area-8,,,,,,,0,0,0,SubCentre,Delhi,East,Mayur Vihar,\N
39142,Area-1,,,,,,,0,0,0,SubCentre,Delhi,North,Narela,\N
39180,Area-C,,,,,,,0,0,0,SubCentre,Delhi,Shahdara,Shahdara,\N
39195,Area-C,,,,,,,0,0,0,SubCentre,Delhi,Central,Kotwali,\N
39200,Area-4,,,,,,,0,0,0,SubCentre,Delhi,South,Hauz Khas,\N
39231,Area-C,,,,,,,0,0,0,SubCentre,Delhi,New Delhi,Delhi Cantonment,\N
39311,DGD Nizampur,DGD Building,Village Nizampur,,NIZAMPUR RASHIDPUR VILLAGE,110081,25952916,28.71614,76.95903,0,Dispensaries,Delhi,North West,Kanjhawla,\N
39331,Area-2,,,,,,,0,0,0,SubCentre,Delhi,South-West,Dwarka,\N
39380,Area-1,,,,,,,0,0,0,SubCentre,Delhi,South-West,Dwarka,\N
39437,Area-7,,,,,,,0,0,0,SubCentre,Delhi,South-West,Dwarka,\N
39518,Area-11,,,,,,,0,0,0,SubCentre,Delhi,North,Narela,\N
39534,MH Karawal Nagar,,,Near Chest Clinic,", Karawal nagar Delhi",110094,22931216,28.724,77.2737,0,Maternity Home,Delhi,North-East,Karawal Nagar,\N
39618,Area-1,,,,,,,0,0,0,SubCentre,Delhi,South East,Defence Colony,\N
39657,Area-5 (070607404),,,,,,,0,0,0,SubCentre,Delhi,Central,Kotwali,\N
39744,Area-C (070607205),,,,,,,0,0,0,SubCentre,Delhi,Central,Kotwali,\N
39784,Area-C,,,,,,,0,0,0,SubCentre,Delhi,Shahdara,Vivek Vihar,\N
39946,DGD Gulabi Bagh,Delhi Govt. Dispensary,Delhi Govt. flats Complex,Gulabi Bagh,Gulabi Bagh,110007,23654536,28.67478707,77.18971223,0,Dispensaries,Delhi,Central,Kotwali,\N
39981,Area-3,,,,,,,0,0,0,SubCentre,Delhi,West,Punjabi Bagh,\N
39982,Area-1,,,,,,,0,0,0,SubCentre,Delhi,North West,Rohini,\N
39995,Area-C,,,,,,,0,0,0,SubCentre,Delhi,North-East,Yamuna Vihar,\N
40029,Area-10,,,,,,,0,0,0,SubCentre,Delhi,North,Model Town,\N
40085,Area-2,,,,,,,0,0,0,SubCentre,Delhi,North West,Saraswati Vihar,\N
40127,Area-5,,,,,,,0,0,0,SubCentre,Delhi,South-West,Dwarka,\N
40151,Area-2,,,,,,,0,0,0,SubCentre,Delhi,North,Alipur,\N
40156,Area-10,,,,,,,0,0,0,SubCentre,Delhi,North,Alipur,\N
40171,Area-2 (070604301),,,,,,,0,0,0,SubCentre,Delhi,Central,Kotwali,\N
40272,Area-C,,,,,,,0,0,0,SubCentre,Delhi,New Delhi,Delhi Cantonment,\N
40332,Area-5,,,,,,,0,0,0,SubCentre,Delhi,New Delhi,Vasant Vihar,\N
40395,Area-2,,,,,,,0,0,0,SubCentre,Delhi,South-West,Dwarka,\N
40421,Area-2,,,,,,,0,0,0,SubCentre,Delhi,South,Hauz Khas,\N
40438,Area-14,,,,,,,0,0,0,SubCentre,Delhi,North,Alipur,\N
